[
  {
    "id": "1",
    "date": "Monday",
    "lng": -117.2902616,
    "name": "Open Mic",
    "isRecurring": true,
    "location": "The Goody Bar and Grill 8712 E SPRAGUE AVE #1000, Spokane Valley WA",
    "details": "Every other monday. Hosted by Anthony Singleton, welcoming all talents including musicians, comedians, spoken word, and improv. Contact: 509-557-3999 or visit <a href=\"https://www.lyyv.tv\" target=\"_blank\" style=\"text-decoration: underline; color: blue;\">lyyv.tv</a> for more info. <a href=\"https://www.google.com/maps/place/The+Goody+Bar+And+Grill/@47.6567246,-117.2902616,17z/data=!3m1!4b1!4m6!3m5!1s0x549e21c949eed8cb:0xbd4d1292f17e8c43!8m2!3d47.656721!4d-117.2876867!16s%2Fg%2F1trrcxqj?entry=ttu\" target=\"_blank\" style=\"text-decoration: underline; color: green;\">View on Google Maps</a>.",
    "lat": 47.656721,
    "googleTimestamp": "2024-08-17T22:25:22.996Z"
  },
  {
    "id": "100",
    "date": "Sunday",
    "name": "Open Mic",
    "isRecurring": true,
    "location": "The Mad House Comedy Club 502 Horton Plaza, San Diego CA",
    "lng": -117.163763,
    "lat": 32.714129,
    "details": "Time: 9:45pm Frequency: Weekly Cost: Free URL: http://www.yelp.com/biz/mad-house-comedy-club-san-diego",
    "googleTimestamp": "2024-08-17T22:25:22.999Z"
  },
  {
    "id": "101",
    "date": "Monday",
    "name": "Open Mic",
    "isRecurring": true,
    "location": "Mutiny Radio 2781 21st Street, San Francisco CA",
    "lng": -122.4101,
    "lat": 37.757454,
    "details": "Time: 6:00pm Frequency: Weekly Cost: Paid URL: https://www.yelp.com/biz/mutiny-radio-san-francisco",
    "googleTimestamp": "2024-08-17T22:25:23.000Z"
  },
  {
    "id": "102",
    "date": "Monday",
    "name": "Open Mic",
    "isRecurring": true,
    "location": "Hotel Utah Saloon 500 Fourth Street, San Francisco CA",
    "lng": -122.39813,
    "lat": 37.779293,
    "details": "Time: 7:30pm Frequency: Weekly Cost: Free URL: https://www.yelp.com/biz/hotel-utah-saloon-san-francisco",
    "googleTimestamp": "2024-08-17T22:25:23.000Z"
  },
  {
    "id": "103",
    "date": "Tuesday",
    "name": "Open Mic",
    "isRecurring": true,
    "location": "Club OMG 43 6th St., San Francisco CA",
    "lng": -122.40931,
    "lat": 37.78176,
    "details": "Time: 6:30pm Frequency: Weekly Cost: Free URL: https://www.yelp.com/biz/omg-san-francisco",
    "googleTimestamp": "2024-08-17T22:25:23.000Z"
  },
  {
    "id": "104",
    "date": "Tuesday",
    "name": "Hysteria Comedy",
    "isRecurring": true,
    "location": "Martuni's 4 Valencia Street, San Francisco CA",
    "lng": -122.422676,
    "lat": 37.7723,
    "details": "Time: 9:00pm Frequency: Weekly Cost: Free URL: https://www.yelp.com/biz/martunis-san-francisco",
    "googleTimestamp": "2024-08-17T22:25:23.000Z"
  },
  {
    "id": "105",
    "date": "Tuesday",
    "name": "Open Mic",
    "isRecurring": true,
    "location": "La Roccas Corner 957 Columbus Ave, San Francisco CA",
    "lng": -122.414604,
    "lat": 37.803165,
    "details": "Time: 10:00pm Frequency: Weekly Cost: Free URL: https://www.yelp.com/biz/la-roccas-corner-san-francisco",
    "googleTimestamp": "2024-08-17T22:25:23.000Z"
  },
  {
    "id": "106",
    "date": "Wednesday",
    "name": "Free Feature Salon",
    "isRecurring": true,
    "location": "Neck Of The Woods 406 Clement, San Francisco CA",
    "lng": -122.463776,
    "lat": 37.783226,
    "details": "Time: 7:00pm Frequency: Weekly Cost: Free URL: https://www.yelp.com/biz/neck-of-the-woods-san-francisco",
    "googleTimestamp": "2024-08-17T22:25:23.000Z"
  },
  {
    "id": "107",
    "date": "Wednesday",
    "name": "Open Mic",
    "isRecurring": true,
    "location": "Mayes Oyster House 1233 Polk St, San Francisco CA",
    "lng": -122.42053,
    "lat": 37.788273,
    "details": "Time: 7:00pm Frequency: Weekly Cost: Free URL: https://www.yelp.com/biz/mayes-oyster-house-san-francisco",
    "googleTimestamp": "2024-08-17T22:25:23.001Z"
  },
  {
    "id": "108",
    "date": "Friday",
    "name": "Open Mic",
    "isRecurring": true,
    "location": "Mutiny Radio 2781 21st Street, San Francisco CA",
    "lng": -122.4101,
    "lat": 37.757454,
    "details": "Time: 6:00pm Frequency: Weekly Cost: Paid URL: https://www.yelp.com/biz/mutiny-radio-san-francisco",
    "googleTimestamp": "2024-08-17T22:25:23.001Z"
  },
  {
    "id": "109",
    "date": "Sunday",
    "name": "Miraloma Mic",
    "isRecurring": true,
    "location": "Miraloma Club 749 Portola Dr, San Francisco CA",
    "lng": -122.45358,
    "lat": 37.74384,
    "details": "Time: 8:00pm Frequency: Weekly Cost: Free URL: https://www.yelp.com/biz/miraloma-club-san-francisco",
    "googleTimestamp": "2024-08-17T22:25:23.001Z"
  },
  {
    "id": "11",
    "date": "Friday",
    "name": "Open Mic Night at The Grain Shed",
    "isRecurring": true,
    "location": "The Grain Shed Taproom, Spokane WA",
    "details": "Hosted by Anthony Singleton. Open Mic Night for music and comedy. Every Friday from 5:30 PM to 8:30ish PM. All ages welcome. Clean mic. Free admission. <a href=\"https://www.google.com/maps/place/The+Grain+Shed+Taproom/@47.6561077,-117.4348802,17z/data=!3m2!4b1!5s0x549e18680a2601e7:0x1a13f3af47308d34!4m6!3m5!1s0x549e194b26b6f1a1:0x6df1cdc8cd28c935!8m2!3d47.6561041!4d-117.4323053!16s%2Fg%2F11thk6c6yx?entry=ttu\" ttarget=\"_blank\" style=\"text-decoration: underline; color: green;\">View on Google Maps</a>.",
    "lng": -117.435997,
    "lat": 47.66264,
    "googleTimestamp": "2024-08-17T22:25:23.001Z"
  },
  {
    "id": "110",
    "date": "Sunday",
    "name": "The Church Of Comedy",
    "isRecurring": true,
    "location": "Club OMG 43 6th St., San Francisco CA",
    "lng": -122.40931,
    "lat": 37.78176,
    "details": "Time: 8:00pm Frequency: Weekly Cost: Free URL: https://www.yelp.com/biz/omg-san-francisco",
    "googleTimestamp": "2024-08-17T22:25:23.001Z"
  },
  {
    "id": "111",
    "date": "Tuesday",
    "name": "Open Mic",
    "isRecurring": true,
    "location": "Shake A Leg Miami 2620 S Bayshore Dr, Miami FL",
    "lng": -80.220543,
    "lat": 25.740249,
    "details": "Time: 6:00pm Frequency: Weekly Cost: Free URL: https://www.yelp.com/biz/shake-a-leg-miami-coconut-grove",
    "googleTimestamp": "2024-08-17T22:25:23.001Z"
  },
  {
    "id": "112",
    "date": "Tuesday",
    "name": "Open Mic",
    "isRecurring": true,
    "location": "Villain Theater 5865 NE 2nd Ave, Miami FL",
    "lng": -80.191835,
    "lat": 25.8296,
    "details": "Time: 8:00pm Frequency: Weekly Cost: Free URL: https://www.yelp.com/biz/villain-theater-miami-2",
    "googleTimestamp": "2024-08-17T22:25:23.002Z"
  },
  {
    "id": "113",
    "date": "Tuesday",
    "name": "Comedy Night",
    "isRecurring": true,
    "location": "Sweet Caroline Karaoke Bar 1111 SW 1st Ave #107, Miami FL",
    "lng": -80.1971736,
    "lat": 25.7633274,
    "details": "Time: 9:00pm Frequency: Weekly Cost: Free URL: https://www.yelp.com/biz/sweet-caroline-karaoke-bar-miami",
    "googleTimestamp": "2024-08-17T22:25:23.002Z"
  },
  {
    "id": "114",
    "date": "Wednesday",
    "name": "Open Mic",
    "isRecurring": true,
    "location": "Union Beer Store 1547 SW. 8th St., Miami FL",
    "lng": -80.220476,
    "lat": 25.765778,
    "details": "Time: 7:30pm Frequency: Weekly Cost: Free URL: https://www.yelp.com/biz/union-beer-store-miami",
    "googleTimestamp": "2024-08-17T22:25:23.002Z"
  },
  {
    "id": "115",
    "date": "Wednesday",
    "name": "Free Comedy Show",
    "isRecurring": false,
    "lng": -80.399918,
    "lat": 25.760451,
    "details": "Time: 9:00pm Frequency: Bi-Weekly Cost: Free URL: https://www.yelp.com/biz/eddies-place-miami",
    "location": "Eddie's Place 12606 SW 8 St, Miami FL",
    "googleTimestamp": "2024-08-17T22:25:23.002Z"
  },
  {
    "id": "116",
    "date": "Wednesday",
    "name": "Open Mic",
    "isRecurring": true,
    "location": "Sand Bar + Kitchen 6752 Collins Ave, Miami FL",
    "lng": -80.12053,
    "lat": 25.851671,
    "details": "Time: 9:00pm Frequency: Weekly Cost: Free URL: https://www.yelp.com/biz/sand-bar-kitchen-miami-beach",
    "googleTimestamp": "2024-08-17T22:25:23.003Z"
  },
  {
    "id": "117",
    "date": "Thursday",
    "name": "Open Mic",
    "isRecurring": true,
    "location": "Artistic Vibes Miami 12986 SW 89 Ave, Miami FL",
    "lng": -80.337478,
    "lat": 25.689823,
    "details": "Time: 8:00pm Frequency: Weekly Cost: Free URL: https://www.yelp.com/biz/artistic-vibes-miami-2",
    "googleTimestamp": "2024-08-17T22:25:23.003Z"
  },
  {
    "id": "118",
    "date": "Thursday",
    "name": "Open Mic",
    "isRecurring": true,
    "location": "Taurus 3540 Main Hwy C103, Miami FL",
    "lng": -80.362225,
    "lat": 25.670998,
    "details": "Time: 10:00pm Frequency: Weekly Cost: Free URL: https://www.yelp.com/biz/taurus-miami-3",
    "googleTimestamp": "2024-08-17T22:25:23.003Z"
  },
  {
    "id": "119",
    "date": "Friday",
    "lng": -80.202365,
    "name": "Open Mic",
    "isRecurring": true,
    "location": "Speakfridays 404 NW 26th St, Miami FL",
    "lat": 25.801257,
    "details": "Time: 8:00pm Frequency: Weekly Cost: Free URL: https://www.yelp.com/biz/speakfridays-miami",
    "googleTimestamp": "2024-08-17T22:25:23.003Z"
  },
  {
    "id": "120",
    "date": "Sunday",
    "name": "Free Comedy Show",
    "isRecurring": true,
    "location": "Smokes Up Miami 15652 SW 72nd St, Miami FL",
    "lng": -80.332559,
    "lat": 25.702519,
    "details": "Time: 8:00pm Frequency: Monthly Cost: Free URL: https://www.yelp.com/biz/smokes-up-miami-miami",
    "googleTimestamp": "2024-08-17T22:25:23.003Z"
  },
  {
    "id": "121",
    "date": "Tuesday",
    "name": "Slack Key",
    "isRecurring": true,
    "location": "HB Social Club 1680 Kapiolani Blvd, Honolulu HI",
    "lng": -157.838364,
    "lat": 21.291637,
    "details": "Time: 7:30pm Frequency: Weekly Cost: Paid URL: https://www.yelp.com/biz/hawaiian-brians-honolulu-4",
    "googleTimestamp": "2024-08-17T22:25:23.003Z"
  },
  {
    "id": "122",
    "date": "Wednesday",
    "name": "Comedy U",
    "isRecurring": true,
    "location": "Anna O'Brien's 2440 South Beretania St., Honolulu HI",
    "lng": -157.823976,
    "lat": 21.294218,
    "details": "Time: 8:00pm Frequency: Weekly Cost: Paid URL: https://www.comedyuhi.com/",
    "googleTimestamp": "2024-08-17T22:25:23.003Z"
  },
  {
    "id": "123",
    "date": "Tuesday",
    "name": "Open Mic",
    "isRecurring": true,
    "location": "Will B's Saloon 12505 W Chinden, Boise ID",
    "lng": -116.337745,
    "lat": 43.662089,
    "details": "Time: 7:30pm Frequency: Weekly Cost: Free URL: https://www.yelp.com/biz/willi-bs-saloon-boise",
    "googleTimestamp": "2024-08-17T22:25:23.003Z"
  },
  {
    "id": "124",
    "date": "Wednesday",
    "name": "Comedy Open Mic",
    "isRecurring": true,
    "location": "Liquid Lounge 405 S. 8th Street, Boise ID",
    "lng": -116.206212,
    "lat": 43.613175,
    "details": "Time: 7:30pm Frequency: Weekly Cost: Free URL: https://www.yelp.com/biz/liquid-lounge-boise",
    "googleTimestamp": "2024-08-17T22:25:23.003Z"
  },
  {
    "id": "125",
    "date": "Thursday",
    "name": "Brew Ha Ha Comedy Open Mic",
    "isRecurring": true,
    "location": "Mad Swede Brew Hall 816 W Bannock St, Boise ID",
    "lng": -116.202505,
    "lat": 43.617579,
    "details": "Time: 7:30pm Frequency: Weekly Cost: Free URL: https://www.yelp.com/biz/mad-swede-brew-hall-boise-3",
    "googleTimestamp": "2024-08-17T22:25:23.003Z"
  },
  {
    "id": "126",
    "date": "Monday",
    "name": "Open Mic",
    "isRecurring": true,
    "location": "Lizard Tail Brewery 3417 Central Ave NE Suite C, Albuquerque NM",
    "lng": -106.606271,
    "lat": 35.080329,
    "details": "Time: 5:30pm Frequency: Weekly Cost: Free URL: https://www.yelp.com/biz/lizard-tail-brewing-albuquerque-2",
    "googleTimestamp": "2024-08-17T22:25:23.004Z"
  },
  {
    "id": "127",
    "date": "Tuesday",
    "name": "Open Mic Rescue",
    "isRecurring": false,
    "location": "Juno Brewery 1501 1st Street, Albuquerque NM",
    "lng": -106.645708,
    "lat": 35.09796,
    "details": "Time: 7:00pm Frequency: Bi-Weekly Cost: Free URL: https://www.yelp.com/biz/juno-albuquerque-2",
    "googleTimestamp": "2024-08-17T22:25:23.004Z"
  },
  {
    "id": "128",
    "date": "Thursday",
    "name": "Up In Smoke Open Mic!",
    "isRecurring": true,
    "location": "The Hall ABQ 107 Jefferson St. NE, Albuquerque NM",
    "lng": -106.593515,
    "lat": 35.07901,
    "details": "Time: 8:30pm Frequency: Weekly Cost: Free URL: https://www.instagram.com/thehallabq/?hl=en",
    "googleTimestamp": "2024-08-17T22:25:23.004Z"
  },
  {
    "id": "129",
    "date": "Monday",
    "name": "Open Mic",
    "isRecurring": true,
    "location": "Dragons Place 7200 W Fond Du Lac Ave, Milwaukee WI",
    "lng": -88.001089,
    "lat": 43.109948,
    "details": "Time: 10:00pm Frequency: Weekly Cost: Free URL: https://m.yelp.com/biz/dragons-place-milwaukee",
    "googleTimestamp": "2024-08-17T22:25:23.004Z"
  },
  {
    "id": "13",
    "date": "Saturday",
    "name": "Stand Up Comedy Open Mic",
    "isRecurring": true,
    "location": "Spikes on 718 E Francis, Spokane WA",
    "details": "Hosted by Anthony Singleton. Every Saturday at 7:00 PM. For more information follow @AnthonySingleton on social media. <a href=\"https://www.google.com/maps/place/Spike's+Spokane/@47.7147076,-117.4008385,17z/data=!3m1!4b1!4m6!3m5!1s0x549e1eb3e673dd89:0xb506914f6e09b6e2!8m2!3d47.7147076!4d-117.3982638!16s%2Fg%2F11d2j5c86h?entry=ttu\" ttarget=\"_blank\" style=\"text-decoration: underline; color: green;\">View on Google Maps</a>.",
    "lng": -117.398302,
    "lat": 47.714804,
    "googleTimestamp": "2024-08-17T22:25:23.004Z"
  },
  {
    "id": "130",
    "date": "Tuesday",
    "name": "Open Mic",
    "isRecurring": true,
    "location": "Miramar Theatre 2844 North Oakland Avenue, Milwaukee WI",
    "lng": -87.887552,
    "lat": 43.070449,
    "details": "Time: 8:00pm Frequency: Weekly Cost: Free URL: https://www.yelp.com/biz/miramar-theatre-milwaukee",
    "googleTimestamp": "2024-08-17T22:25:23.004Z"
  },
  {
    "id": "131",
    "date": "Tuesday",
    "lng": -87.893,
    "name": "The Duck And Cover Comedy Hour",
    "isRecurring": true,
    "location": "Frank's Power Plant 2800 S. Kinnickinnic Ave, Milwaukee WI",
    "lat": 42.994254,
    "details": "Time: 8:45pm Frequency: Weekly Cost: Free URL: https://www.yelp.com/biz/franks-power-plant-milwaukee",
    "googleTimestamp": "2024-08-17T22:25:23.004Z"
  },
  {
    "id": "132",
    "date": "Thursday",
    "name": "World's Funniest Free Comedy Show!",
    "isRecurring": true,
    "lng": -87.991642,
    "location": "Rounding Third 6317 W. Bluemound Rd., Milwaukee WI",
    "lat": 43.035923,
    "details": "Time: 8:00pm Frequency: Weekly Cost: Free URL: https://www.yelp.com/biz/rounding-third-milwaukee",
    "googleTimestamp": "2024-08-17T22:25:23.004Z"
  },
  {
    "id": "133",
    "date": "Tuesday",
    "name": "Open Mic",
    "isRecurring": true,
    "location": "Public Bar Live 1214 18th St NW, Washington DC",
    "lng": -77.04206,
    "lat": 38.906286,
    "details": "Time: 9:00pm Frequency: Weekly Cost: Paid URL: https://www.yelp.com/biz/public-bar-live-washington",
    "googleTimestamp": "2024-08-17T22:25:23.004Z"
  },
  {
    "id": "134",
    "date": "Wednesday",
    "name": "Adams Bomb",
    "isRecurring": true,
    "location": "Dirty Water 816 H St NE, Washington DC",
    "lng": -76.994196,
    "lat": 38.900455,
    "details": "Time: 9:00pm Frequency: Weekly Cost: Free URL: https://www.yelp.com/biz/dirty-water-washington",
    "googleTimestamp": "2024-08-17T22:25:23.004Z"
  },
  {
    "id": "135",
    "date": "Thursday",
    "name": "Underground Comedy Night",
    "isRecurring": true,
    "lng": -77.04848,
    "location": "Bier Baron Tavern 1523 22nd St NW, Washington DC",
    "lat": 38.910303,
    "details": "Time: 8:00pm Frequency: Weekly Cost: Free URL: https://www.yelp.com/biz/the-bier-baron-tavern-and-comedy-loft-washington",
    "googleTimestamp": "2024-08-17T22:25:23.004Z"
  },
  {
    "id": "136",
    "date": "Friday",
    "name": "Open Mic",
    "isRecurring": true,
    "location": "Potters House 1658 Columbia Road Nw, Washington DC",
    "lng": -77.038749,
    "lat": 38.924953,
    "details": "Time: 7:30pm Frequency: Weekly Cost: Free URL: https://www.yelp.com/biz/potters-house-washington",
    "googleTimestamp": "2024-08-17T22:25:23.004Z"
  },
  {
    "id": "137",
    "date": "Friday",
    "lng": -77.041601,
    "name": "Martin Amini and Friends",
    "isRecurring": true,
    "location": "Heaven and Hell 2327 18th St NW, Washington DC",
    "lat": 38.920437,
    "details": "Time: 8:30pm Frequency: Weekly Cost: Free URL: https://www.yelp.com/biz/club-heaven-and-hell-washington-3",
    "googleTimestamp": "2024-08-17T22:25:23.004Z"
  },
  {
    "id": "138",
    "date": "Sunday",
    "name": "Underground Comedy",
    "isRecurring": true,
    "location": "Wonderland Ballroom 1101 Kenyon St NW, Washington DC",
    "lng": -77.027988,
    "lat": 38.929921,
    "details": "Time: 7:00pm Frequency: Weekly Cost: Free URL: https://www.yelp.com/biz/the-wonderland-ballroom-washington",
    "googleTimestamp": "2024-08-17T22:25:23.004Z"
  },
  {
    "id": "139",
    "date": "Sunday",
    "name": "Pretty Sure It's An Open Mic",
    "isRecurring": true,
    "lng": -77.001153,
    "location": "Hawn 'n Dove 329 Pennsylvania Ave SE, Washington DC",
    "lat": 38.886406,
    "details": "Time: 7:00pm Frequency: Weekly Cost: Free URL: https://www.yelp.com/biz/hawk-n-dove-washington",
    "googleTimestamp": "2024-08-17T22:25:23.004Z"
  },
  {
    "id": "14",
    "date": "Thursday",
    "name": "Open Mic Night at Emerge",
    "isRecurring": true,
    "location": "Emerge downtown, Coeur D'Alene ID",
    "lng": -116.654109,
    "lat": 47.691736,
    "details": "Every third Thursday of the month - Singers, Songwriters, Poets, Spoken Word & Monologues welcome. All ages welcome. We just ask that you be respectful of others in the space and are ready to experience a wide variety of performances. <a href=\"https://emergecda.com/\" target=\"_blank\" style=\"text-decoration: underline; color: blue;\">Visit website</a>. <a href=\"https://www.google.com/maps/place/Emerge/@47.6742323,-116.7842855,15z/data=!4m2!3m1!1s0x0:0xfe97b08bde5da689?sa=X&ved=2ahUKEwjRtISQ86ODAxV0MjQIHcuOBYoQ_BJ6BAgQEAA\" target=\"_blank\" style=\"text-decoration: underline; color: green;\">View on Google Maps</a>.",
    "googleTimestamp": "2024-08-17T22:25:23.004Z"
  },
  {
    "id": "140",
    "date": "Thursday",
    "name": "Laugh Jurassoff",
    "isRecurring": false,
    "lng": -108.613907,
    "location": "The Red Door Lounge 3875 Grand Avenue, Billings MT",
    "lat": 45.784473,
    "details": "Time: 8:00pm Frequency: Bi-Weekly Cost: Free URL: https://www.yelp.com/biz/the-red-door-lounge-billings",
    "googleTimestamp": "2024-08-17T22:25:23.004Z"
  },
  {
    "id": "141",
    "date": "Monday",
    "name": "Comedy in the Corner",
    "isRecurring": true,
    "location": "The Break Room 1011 W College St, Bozeman MT",
    "lng": -111.051508,
    "lat": 45.67166,
    "details": "Time: 7:00pm Frequency: Weekly Cost: Free URL: https://www.yelp.com/biz/the-break-room-no-title",
    "googleTimestamp": "2024-08-17T22:25:23.004Z"
  },
  {
    "id": "142",
    "date": "Tuesday",
    "name": "Bone Dry Comedy Hour",
    "isRecurring": true,
    "location": "Last Best Comedy 321 E Main St, Bozeman MT",
    "lng": -111.032388,
    "lat": 45.6796,
    "details": "Time: 8:00pm Frequency: Weekly Cost: Free URL: https://www.yelp.com/biz/last-best-comedy-bozeman",
    "googleTimestamp": "2024-08-17T22:25:23.005Z"
  },
  {
    "id": "143",
    "date": "Friday",
    "name": "Happy Hour Open Mic",
    "isRecurring": true,
    "location": "Last Best Comedy 321 E Main St, Bozeman MT",
    "lng": -111.032388,
    "lat": 45.6796,
    "details": "Time: 5:30pm Frequency: Weekly Cost: Free URL: https://www.yelp.com/biz/last-best-comedy-bozeman",
    "googleTimestamp": "2024-08-17T22:25:23.005Z"
  },
  {
    "id": "144",
    "date": "Monday",
    "name": "Open Mic",
    "isRecurring": true,
    "location": "The Vinyl Lounge 1414 3rd Ave S, Nashville TN",
    "lng": -86.762831,
    "lat": 36.141433,
    "details": "Time: 7:00pm Frequency: Weekly Cost: Free URL: https://www.yelp.com/biz/the-vinyl-lounge-nashville",
    "googleTimestamp": "2024-08-17T22:25:23.005Z"
  },
  {
    "id": "145",
    "date": "Monday",
    "name": "Flying Toaster Video",
    "isRecurring": true,
    "location": "Hubba Hubba Tiki Tonk 922 Main St, Nashville TN",
    "lng": -86.765566,
    "lat": 36.172611,
    "details": "Time: 7:00pm Frequency: Weekly Cost: Free URL: https://www.yelp.com/biz/hubba-hubba-tiki-tonk-nashville",
    "googleTimestamp": "2024-08-17T22:25:23.005Z"
  },
  {
    "id": "146",
    "date": "Monday",
    "name": "Open Mic Mondays",
    "isRecurring": true,
    "location": "Garage Sale Vintage 747 Douglas Ave #101, Nashville TN",
    "lng": -86.7566011,
    "lat": 36.1939931,
    "details": "Time: 7:30pm Frequency: Weekly Cost: Free URL: https://www.yelp.com/biz/garage-sale-vintage-nashville-nashville",
    "googleTimestamp": "2024-08-17T22:25:23.005Z"
  },
  {
    "id": "147",
    "date": "Monday",
    "name": "Roast The Host",
    "isRecurring": true,
    "location": "Third Coast Comedy Club 1310 Clinton Street 37203, Nashville TN",
    "lng": -86.796501,
    "lat": 36.164518,
    "details": "Time: 10:00pm Frequency: Weekly Cost: Free URL: https://www.yelp.com/biz/third-coast-comedy-club-nashville",
    "googleTimestamp": "2024-08-17T22:25:23.005Z"
  },
  {
    "id": "148",
    "date": "Tuesday",
    "name": "Open Mic",
    "isRecurring": true,
    "location": "The East Room 2412 Gallatin Ave., Nashville TN",
    "lng": -86.74311,
    "lat": 36.194531,
    "details": "Time: 8:30pm Frequency: Weekly Cost: Free URL: https://www.yelp.com/biz/the-east-room-nashville",
    "googleTimestamp": "2024-08-17T22:25:23.005Z"
  },
  {
    "id": "149",
    "date": "Tuesday",
    "name": "Open Mic",
    "isRecurring": true,
    "location": "Bobby's Idle Hour Tavern 9 Music Square S, Nashville TN",
    "lng": -86.794128,
    "lat": 36.146757,
    "details": "Time: 10:00pm Frequency: Weekly Cost: Free URL: https://www.yelp.com/biz/bobbys-idle-hour-tavern-nashville",
    "googleTimestamp": "2024-08-17T22:25:23.005Z"
  },
  {
    "id": "15",
    "date": "Monday",
    "name": "Good Vibe Monday by Ally Noel",
    "isRecurring": true,
    "location": "Comedy Blvd 7924 Beverly Blvd, Los Angeles CA",
    "lng": -118.361926,
    "lat": 34.075952,
    "details": "Time: 5:00pm Frequency: Weekly Cost: Paid URL: https://slotted.co/comedyblvdsignup/",
    "googleTimestamp": "2024-08-17T22:25:23.005Z"
  },
  {
    "id": "150",
    "date": "Wednesday",
    "name": "Open Mic",
    "isRecurring": true,
    "location": "The Bowery Vault 2905C Gallatin Pike 2nd Level Suite C, Nashville TN",
    "lng": -86.785429,
    "lat": 36.185664,
    "details": "Time: 5:00pm Frequency: Weekly Cost: Free URL: https://www.yelp.com/biz/the-bowery-vault-nashville",
    "googleTimestamp": "2024-08-17T22:25:23.005Z"
  },
  {
    "id": "151",
    "date": "Wednesday",
    "name": "Open Mic",
    "isRecurring": true,
    "location": "Pressure Smoke and Dab Bar 2190 Nolensville Pk B, Nashville TN",
    "lng": -86.754603,
    "lat": 36.129615,
    "details": "Time: 7:00pm Frequency: Weekly Cost: Free URL: https://www.yelp.com/biz/pressure-smoke-and-vape-shop-nashville-2",
    "googleTimestamp": "2024-08-17T22:25:23.005Z"
  },
  {
    "id": "152",
    "date": "Wednesday",
    "name": "Open Mic",
    "isRecurring": true,
    "location": "G-Spot 2203 Buchanan St, Nashville TN",
    "lng": -86.813495,
    "lat": 36.179992,
    "details": "Time: 8:00pm Frequency: Weekly Cost: Free URL: https://www.yelp.com/biz/g-spot-nashville-2",
    "googleTimestamp": "2024-08-17T22:25:23.005Z"
  },
  {
    "id": "153",
    "date": "Wednesday",
    "name": "Open Mic",
    "isRecurring": true,
    "location": "Official Wings 2035 Jefferson St, Nashville TN",
    "lng": -86.811846,
    "lat": 36.168541,
    "details": "Time: 8:00pm Frequency: Weekly Cost: Free URL: https://www.yelp.com/biz/official-wings-nashville",
    "googleTimestamp": "2024-08-17T22:25:23.005Z"
  },
  {
    "id": "154",
    "date": "Thursday",
    "name": "Open Mic",
    "isRecurring": true,
    "location": "The Groove 1103 Calvin Ave, Nashville TN",
    "lng": -86.748699,
    "lat": 36.181826,
    "details": "Time: 6:00pm Frequency: Weekly Cost: Free URL: https://www.yelp.com/biz/the-groove-nashville",
    "googleTimestamp": "2024-08-17T22:25:23.005Z"
  },
  {
    "id": "155",
    "date": "Thursday",
    "name": "Open Mic",
    "isRecurring": true,
    "location": "Love and Exile 715 Main St A, Nashville TN",
    "lng": -86.75986,
    "lat": 36.175175,
    "details": "Time: 7:00pm Frequency: Weekly Cost: Free URL: https://www.yelp.com/biz/love-and-exile-nashville",
    "googleTimestamp": "2024-08-17T22:25:23.005Z"
  },
  {
    "id": "156",
    "date": "Thursday",
    "name": "Open Mic",
    "isRecurring": true,
    "location": "Fran's East Side 2504 Dickerson Pike, Nashville TN",
    "lng": -86.76588,
    "lat": 36.21106,
    "details": "Time: 7:00pm Frequency: Weekly Cost: Free URL: https://www.yelp.com/biz/frans-east-side-nashville",
    "googleTimestamp": "2024-08-17T22:25:23.005Z"
  },
  {
    "id": "157",
    "date": "Thursday",
    "name": "Open Mic",
    "isRecurring": true,
    "location": "JuicePow 2703 Gallatin Pike, Nashville TN",
    "lng": -86.741174,
    "lat": 36.199314,
    "details": "Time: 9:00pm Frequency: Weekly Cost: Free URL: https://www.yelp.com/biz/juicepow-nashville",
    "googleTimestamp": "2024-08-17T22:25:23.005Z"
  },
  {
    "id": "158",
    "date": "Friday",
    "name": "Open Mic",
    "isRecurring": true,
    "location": "Grandpa Bar 1501 Herman St #123, Nashville TN",
    "lng": -86.8012608,
    "lat": 36.1660208,
    "details": "Time: 6:00pm Frequency: Weekly Cost: Free URL: https://www.yelp.com/biz/grandpa-bar-nashville-2",
    "googleTimestamp": "2024-08-17T22:25:23.005Z"
  },
  {
    "id": "159",
    "date": "Friday",
    "name": "Open Mic",
    "isRecurring": true,
    "location": "The Holistic Connection 4401 Harding Pike, Nashville TN",
    "lng": -86.846506,
    "lat": 36.125476,
    "details": "Time: 10:00pm Frequency: Weekly Cost: Free URL: https://www.yelp.com/biz/the-holistic-connection-belle-meade-nashville-3",
    "googleTimestamp": "2024-08-17T22:25:23.005Z"
  },
  {
    "id": "16",
    "date": "Monday",
    "name": "Lucky 7 Mic",
    "isRecurring": true,
    "location": "Third Wheel Comedy 5176 Santa Monica Blvd, Los Angeles CA",
    "lng": -118.302603,
    "lat": 34.090659,
    "details": "Time: 6:00pm Frequency: Weekly Cost: Free URL: http://thirdwheelcomedy.com/",
    "googleTimestamp": "2024-08-17T22:25:23.005Z"
  },
  {
    "id": "160",
    "date": "Sunday",
    "name": "Open Mic",
    "isRecurring": true,
    "location": "The Cobra 2511 Gallatin Ave, Nashville TN",
    "lng": -86.743187,
    "lat": 36.195552,
    "details": "Time: 7:00pm Frequency: Weekly Cost: Free URL: https://www.yelp.com/biz/the-cobra-nashville",
    "googleTimestamp": "2024-08-17T22:25:23.005Z"
  },
  {
    "id": "161",
    "date": "Sunday",
    "name": "Open Mic",
    "isRecurring": true,
    "location": "The Green Light Bar 833 Hawkins St, Nashville TN",
    "lng": -86.780476,
    "lat": 36.147211,
    "details": "Time: 8:00pm Frequency: Weekly Cost: Free URL: https://www.yelp.com/biz/the-green-light-nashville",
    "googleTimestamp": "2024-08-17T22:25:23.005Z"
  },
  {
    "id": "162",
    "date": "Monday",
    "name": "Open Mic",
    "isRecurring": true,
    "location": "The Lincoln Lodge 2040 N Milwaukee Ave, Chicago IL",
    "lng": -87.69025,
    "lat": 41.918255,
    "details": "Time: 7:00pm Frequency: Weekly Cost: Free URL: https://www.yelp.com/biz/lincoln-lodge-chicago",
    "googleTimestamp": "2024-08-17T22:25:23.005Z"
  },
  {
    "id": "163",
    "date": "Monday",
    "name": "Open Mic",
    "isRecurring": true,
    "location": "Wrigleyville North 3900 N Sheridan Rd, Chicago IL",
    "lng": -87.654819,
    "lat": 41.952944,
    "details": "Time: 7:00pm Frequency: Weekly Cost: Free URL: https://www.yelp.com/biz/wrigleyville-north-chicago",
    "googleTimestamp": "2024-08-17T22:25:23.006Z"
  },
  {
    "id": "164",
    "date": "Monday",
    "name": "Open Mic",
    "isRecurring": true,
    "location": "Subterranean 2011 W North Ave, Chicago IL",
    "lng": -87.678006,
    "lat": 41.910325,
    "details": "Time: 7:00pm Frequency: Weekly Cost: Free URL: https://www.yelp.com/biz/subterranean-chicago",
    "googleTimestamp": "2024-08-17T22:25:23.006Z"
  },
  {
    "id": "165",
    "date": "Monday",
    "name": "Open Mic",
    "isRecurring": true,
    "location": "Maria's Packaged Goods 960 W 31st St, Chicago IL",
    "lng": -87.660431,
    "lat": 41.838001,
    "details": "Time: 7:00pm Frequency: Weekly Cost: Free URL: https://www.yelp.com/biz/marias-packaged-goods-and-community-bar-chicago",
    "googleTimestamp": "2024-08-17T22:25:23.006Z"
  },
  {
    "id": "166",
    "date": "Monday",
    "name": "Open Mic",
    "isRecurring": true,
    "location": "Uptown Taproom 1265 W Wilson Ave, Chicago IL",
    "lng": -87.661574,
    "lat": 41.965188,
    "details": "Time: 7:30pm Frequency: Weekly Cost: Free URL: https://www.yelp.com/biz/uptown-taproom-chicago",
    "googleTimestamp": "2024-08-17T22:25:23.006Z"
  },
  {
    "id": "167",
    "date": "Monday",
    "name": "Open Mic",
    "isRecurring": true,
    "location": "Darrin's Cocktail Lounge 1249 E 87th St, Chicago IL",
    "lng": -87.574896,
    "lat": 41.737217,
    "details": "Time: 8:00pm Frequency: Weekly Cost: Free URL: https://www.yelp.com/biz/darrins-cocktail-lounge-chicago",
    "googleTimestamp": "2024-08-17T22:25:23.006Z"
  },
  {
    "id": "168",
    "date": "Monday",
    "name": "Open Mic",
    "isRecurring": true,
    "location": "Nicks Beer Garden 1516 N Milwaukee Ave, Chicago IL",
    "lng": -87.675695,
    "lat": 41.908902,
    "details": "Time: 8:00pm Frequency: Weekly Cost: Free URL: https://www.yelp.com/biz/nicks-beer-garden-chicago-2",
    "googleTimestamp": "2024-08-17T22:25:23.006Z"
  },
  {
    "id": "169",
    "date": "Monday",
    "name": "Open Mic",
    "isRecurring": true,
    "location": "Logan Theatre 2646 N. Milwaukee, Chicago IL",
    "lng": -87.708844,
    "lat": 41.929674,
    "details": "Time: 8:30pm Frequency: Weekly Cost: Free URL: https://www.yelp.com/biz/logan-theatre-chicago",
    "googleTimestamp": "2024-08-17T22:25:23.006Z"
  },
  {
    "id": "17",
    "date": "Monday",
    "name": "Girls And Gays Open Mic",
    "isRecurring": true,
    "location": "Fourth Wall Cafe 5220 Hollywood Blvd, Los Angeles CA",
    "lng": -118.303737,
    "lat": 34.1016,
    "details": "Time: 7:00pm Frequency: Weekly Cost: Paid URL: https://www.yelp.com/biz/fourth-wall-comedy-cafe-los-angeles",
    "googleTimestamp": "2024-08-17T22:25:23.006Z"
  },
  {
    "id": "170",
    "date": "Monday",
    "name": "Open Mic",
    "isRecurring": true,
    "location": "Shakers on Clark 3162 N Clark St, Chicago IL",
    "lng": -87.650395,
    "lat": 41.939348,
    "details": "Time: 8:30pm Frequency: Weekly Cost: Free URL: https://www.yelp.com/biz/shakers-on-clark-chicago",
    "googleTimestamp": "2024-08-17T22:25:23.006Z"
  },
  {
    "id": "171",
    "date": "Monday",
    "name": "Open Mic",
    "isRecurring": true,
    "location": "The Comedy Bar 162 E Superior St., Chicago IL",
    "lng": -87.623035,
    "lat": 41.89601,
    "details": "Time: 9:00pm Frequency: Weekly Cost: Free URL: https://www.yelp.com/biz/the-comedy-bar-chicago-4",
    "googleTimestamp": "2024-08-17T22:25:23.006Z"
  },
  {
    "id": "172",
    "date": "Monday",
    "name": "Open Mic",
    "isRecurring": true,
    "location": "Output Lounge & Sports Bar 3720 N Clark St, Chicago IL",
    "lng": -87.6612676,
    "lat": 41.9496229,
    "details": "Time: 9:45pm Frequency: Weekly Cost: Free URL: https://www.yelp.com/biz/output-wrigleyville-chicago",
    "googleTimestamp": "2024-08-17T22:25:23.006Z"
  },
  {
    "id": "173",
    "date": "Monday",
    "name": "Open Mic",
    "isRecurring": true,
    "location": "My Buddy's 4416 N Clark St, Chicago IL",
    "lng": -87.666571,
    "lat": 41.962235,
    "details": "Time: 10:00pm Frequency: Weekly Cost: Free URL: https://www.yelp.com/biz/my-buddys-chicago",
    "googleTimestamp": "2024-08-17T22:25:23.006Z"
  },
  {
    "id": "174",
    "date": "Tuesday",
    "name": "Open Mic",
    "isRecurring": true,
    "location": "Surge Billiards 3716 W Fullerton Ave, Chicago IL",
    "lng": -87.720247,
    "lat": 41.92488,
    "details": "Time: 6:00pm Frequency: Weekly Cost: Free URL: https://www.yelp.com/biz/surge-billiards-chicago-2",
    "googleTimestamp": "2024-08-17T22:25:23.006Z"
  },
  {
    "id": "175",
    "date": "Tuesday",
    "name": "Open Mic",
    "isRecurring": true,
    "location": "Frances Cocktail Lounge 307 E 75th St, Chicago IL",
    "lng": -87.592394,
    "lat": 41.758559,
    "details": "Time: 7:00pm Frequency: Weekly Cost: Free URL: https://francescocktaillounge.com/",
    "googleTimestamp": "2024-08-17T22:25:23.006Z"
  },
  {
    "id": "176",
    "date": "Tuesday",
    "name": "Open Mic",
    "location": "Glenwood 6962 N Glenwood Ave, Chicago IL",
    "lng": -87.666341,
    "isRecurring": false,
    "lat": 42.008454,
    "details": "Time: 7:30pm Frequency: Bi-Weekly Cost: Free URL: https://www.yelp.com/biz/the-glenwood-chicago",
    "googleTimestamp": "2024-08-17T22:25:23.006Z"
  },
  {
    "id": "177",
    "date": "Tuesday",
    "name": "Open Mic",
    "isRecurring": true,
    "location": "Pizzeria Serio 1708 W Belmont Ave, Chicago IL",
    "lng": -87.671492,
    "lat": 41.939924,
    "details": "Time: 7:30pm Frequency: Weekly Cost: Free URL: https://www.yelp.com/biz/pizzeria-serio-chicago",
    "googleTimestamp": "2024-08-17T22:25:23.006Z"
  },
  {
    "id": "178",
    "date": "Tuesday",
    "name": "Open Mic",
    "isRecurring": true,
    "location": "Harrigan's 2816 N Halsted St, Chicago IL",
    "lng": -87.649291,
    "lat": 41.933286,
    "details": "Time: 8:00pm Frequency: Weekly Cost: Free URL: https://www.yelp.com/biz/harrigans-chicago",
    "googleTimestamp": "2024-08-17T22:25:23.006Z"
  },
  {
    "id": "179",
    "date": "Tuesday",
    "name": "Open Mic",
    "isRecurring": true,
    "location": "Redline VR 4702 N Ravenswood Ave, Chicago IL",
    "lng": -87.674811,
    "lat": 41.967033,
    "details": "Time: 8:00pm Frequency: Weekly Cost: Free URL: https://www.yelp.com/biz/redline-vr-chicago",
    "googleTimestamp": "2024-08-17T22:25:23.006Z"
  },
  {
    "id": "18",
    "date": "Monday",
    "name": "Open Mic",
    "isRecurring": true,
    "location": "L.A. School Of Comedy 10835 Santa Monica Blvd, Los Angeles CA",
    "lng": -118.436122,
    "lat": 34.05024,
    "details": "Time: 7:00pm Frequency: Weekly Cost: Paid URL: http://laschoolofcomedy.com/",
    "googleTimestamp": "2024-08-17T22:25:23.006Z"
  },
  {
    "id": "180",
    "date": "Tuesday",
    "name": "Open Mic",
    "isRecurring": true,
    "location": "Emerald Isle 6686 N Northwest Hwy, Chicago IL",
    "lng": -87.815874,
    "lat": 42.002383,
    "details": "Time: 8:00pm Frequency: Weekly Cost: Free URL: https://www.yelp.com/biz/emerald-isle-chicago",
    "googleTimestamp": "2024-08-17T22:25:23.006Z"
  },
  {
    "id": "181",
    "date": "Tuesday",
    "lng": -87.68669,
    "name": "Open Mic",
    "isRecurring": true,
    "location": "Carbon Arc Bar 4620 N Lincoln Ave, Chicago IL",
    "lat": 41.965446,
    "details": "Time: 8:00pm Frequency: Weekly Cost: Free URL: https://carbonarcbar.com/",
    "googleTimestamp": "2024-08-17T22:25:23.006Z"
  },
  {
    "id": "182",
    "date": "Tuesday",
    "name": "Open Mic",
    "isRecurring": true,
    "location": "O'Donnell's 4500 N Elston Ave, Chicago IL",
    "lng": -87.732328,
    "lat": 41.96239,
    "details": "Time: 8:00pm Frequency: Weekly Cost: Free URL: https://www.yelp.com/biz/o-donnells-chicago",
    "googleTimestamp": "2024-08-17T22:25:23.006Z"
  },
  {
    "id": "183",
    "date": "Tuesday",
    "name": "Open Mic",
    "isRecurring": true,
    "location": "Laugh Factory 3175 N Broadway St, Chicago IL",
    "lng": -87.644216,
    "lat": 41.939802,
    "details": "Time: 9:00pm Frequency: Weekly Cost: Free URL: http://www.laughfactory.com/",
    "googleTimestamp": "2024-08-17T22:25:23.006Z"
  },
  {
    "id": "184",
    "date": "Tuesday",
    "name": "Open Mic",
    "isRecurring": true,
    "location": "Lotties Pub 1925 West Cortland Street, Chicago IL",
    "lng": -87.676203,
    "lat": 41.91571,
    "details": "Time: 9:00pm Frequency: Weekly Cost: Free URL: https://www.yelp.com/biz/lotties-pub-chicago-3",
    "googleTimestamp": "2024-08-17T22:25:23.006Z"
  },
  {
    "id": "185",
    "date": "Tuesday",
    "name": "Open Mic",
    "isRecurring": true,
    "location": "Annoyance Theatre & Bar 851 W Belmont Ave, Chicago IL",
    "lng": -88.173001,
    "lat": 30.509877,
    "details": "Time: 9:30pm Frequency: Weekly Cost: Free URL: https://www.yelp.com/biz/the-annoyance-theatre-and-bar-chicago-2",
    "googleTimestamp": "2024-08-17T22:25:23.006Z"
  },
  {
    "id": "186",
    "date": "Wednesday",
    "name": "Open Mic",
    "isRecurring": true,
    "location": "The Lincoln Lodge 2040 N Milwaukee Ave, Chicago IL",
    "lng": -87.69025,
    "lat": 41.918255,
    "details": "Time: 6:00pm Frequency: Weekly Cost: Free URL: https://www.yelp.com/biz/lincoln-lodge-chicago",
    "googleTimestamp": "2024-08-17T22:25:23.006Z"
  },
  {
    "id": "187",
    "date": "Wednesday",
    "lng": -87.65468,
    "name": "Open Mic",
    "isRecurring": true,
    "location": "Emerald City Coffee 3938 North Sheridan Road, Chicago IL",
    "lat": 41.953987,
    "details": "Time: 7:00pm Frequency: Weekly Cost: Free URL: https://www.yelp.com/biz/emerald-city-coffee-chicago",
    "googleTimestamp": "2024-08-17T22:25:23.006Z"
  },
  {
    "id": "188",
    "date": "Wednesday",
    "name": "Open Mic",
    "isRecurring": true,
    "location": "Red Room Comedy Club 7442 N Western Ave, Chicago IL",
    "lng": -87.690574,
    "lat": 42.017162,
    "details": "Time: 8:00pm Frequency: Weekly Cost: Free URL: https://www.redroomcomedyclub.com/",
    "googleTimestamp": "2024-08-17T22:25:23.006Z"
  },
  {
    "id": "189",
    "date": "Wednesday",
    "name": "Open Mic",
    "isRecurring": true,
    "location": "The Rabbit Hole Wrigley 3474 N Clark St, Chicago IL",
    "lng": -87.65684,
    "lat": 41.947414,
    "details": "Time: 8:00pm Frequency: Weekly Cost: Free URL: https://rabbitholewrigley.com/",
    "googleTimestamp": "2024-08-17T22:25:23.006Z"
  },
  {
    "id": "19",
    "date": "Monday",
    "lng": -118.369208,
    "name": "Open Mic",
    "isRecurring": true,
    "location": "Badger And Jam 8265 Sunset Blvd Suite 200, Los Angeles CA",
    "lat": 34.09727,
    "details": "Time: 7:00pm Frequency: Weekly Cost: Paid URL: http://slotted.co/badgerandjam",
    "googleTimestamp": "2024-08-17T22:25:23.007Z"
  },
  {
    "id": "190",
    "date": "Wednesday",
    "name": "Open Mic",
    "isRecurring": true,
    "location": "Cole's Bar 2338 N Milwaukee Ave, Chicago IL",
    "lng": -87.698975,
    "lat": 41.923525,
    "details": "Time: 9:00pm Frequency: Weekly Cost: Free URL: https://www.yelp.com/biz/coles-bar-chicago-2",
    "googleTimestamp": "2024-08-17T22:25:23.007Z"
  },
  {
    "id": "191",
    "date": "Wednesday",
    "name": "Open Mic",
    "isRecurring": true,
    "location": "Easy Bar 1944 W Division St, Chicago IL",
    "lng": -87.676646,
    "lat": 41.90351,
    "details": "Time: 10:30pm Frequency: Weekly Cost: Free URL: https://www.yelp.com/biz/easy-bar-chicago",
    "googleTimestamp": "2024-08-17T22:25:23.007Z"
  },
  {
    "id": "192",
    "date": "Wednesday",
    "name": "Open Mic",
    "isRecurring": true,
    "location": "Claddagh Ring Pub 2306 W Foster Ave, Chicago IL",
    "lng": -87.687132,
    "lat": 41.976188,
    "details": "Time: 10:30pm Frequency: Weekly Cost: Free URL: https://www.yelp.com/biz/the-claddagh-ring-pub-chicago",
    "googleTimestamp": "2024-08-17T22:25:23.007Z"
  },
  {
    "id": "193",
    "date": "Thursday",
    "name": "Open Mic",
    "isRecurring": true,
    "location": "Logan Vegan 2535 N. Kedzie Blvd., Chicago IL",
    "lng": -87.706531,
    "lat": 41.9277,
    "details": "Time: 6:00pm Frequency: Weekly Cost: Free URL: https://www.instagram.com/p/c2qsc9krejg/",
    "googleTimestamp": "2024-08-17T22:25:23.007Z"
  },
  {
    "id": "194",
    "date": "Thursday",
    "name": "Open Mic",
    "isRecurring": true,
    "location": "Redline VR 4702 N Ravenswood Ave, Chicago IL",
    "lng": -87.674811,
    "lat": 41.967033,
    "details": "Time: 8:00pm Frequency: Weekly Cost: Free URL: https://www.yelp.com/biz/redline-vr-chicago",
    "googleTimestamp": "2024-08-17T22:25:23.007Z"
  },
  {
    "id": "195",
    "date": "Thursday",
    "name": "Open Mic",
    "isRecurring": true,
    "location": "ETA Creative Arts Foundation 7558 S South Chicago Ave, Chicago IL",
    "lng": -87.593989,
    "lat": 41.757017,
    "details": "Time: 8:00pm Frequency: Weekly Cost: Free URL: https://www.yelp.com/biz/eta-creative-arts-foundation-chicago",
    "googleTimestamp": "2024-08-17T22:25:23.007Z"
  },
  {
    "id": "196",
    "date": "Thursday",
    "name": "Open Mic",
    "isRecurring": true,
    "location": "Schubas Tavern 3159 N Southport Ave, Chicago IL",
    "lng": -87.663457,
    "lat": 41.939656,
    "details": "Time: 8:00pm Frequency: Weekly Cost: Free URL: https://www.yelp.com/biz/schubas-tavern-chicago-3",
    "googleTimestamp": "2024-08-17T22:25:23.007Z"
  },
  {
    "id": "197",
    "date": "Thursday",
    "name": "Open Mic",
    "isRecurring": true,
    "location": "Nola Bar & Kitchen 3481-83 N Clark St, Chicago IL",
    "lng": -93.679045,
    "lat": 34.910749,
    "details": "Time: 8:00pm Frequency: Weekly Cost: Free URL: https://www.yelp.com/biz/nola-bar-and-kitchen-chicago",
    "googleTimestamp": "2024-08-17T22:25:23.007Z"
  },
  {
    "id": "198",
    "date": "Thursday",
    "name": "Open Mic",
    "isRecurring": true,
    "location": "Dreamers Yolo 5419 N Lincoln Ave, Chicago IL",
    "lng": -87.692453,
    "lat": 41.980116,
    "details": "Time: 8:00pm Frequency: Weekly Cost: Free URL: https://www.yelp.com/biz/dreamers-yolo-chicago",
    "googleTimestamp": "2024-08-17T22:25:23.007Z"
  },
  {
    "id": "199",
    "date": "Thursday",
    "name": "Open Mic",
    "isRecurring": true,
    "location": "Rec Room 4138 N Sheridan Rd, Chicago IL",
    "lng": -87.655143,
    "lat": 41.957728,
    "details": "Time: 8:00pm Frequency: Weekly Cost: Free URL: https://www.recroomchicago.org/",
    "googleTimestamp": "2024-08-17T22:25:23.007Z"
  },
  {
    "id": "2",
    "date": "Tuesday",
    "name": "New Talent Tuesday!",
    "isRecurring": true,
    "location": "Spokane Comedy Club, Spokane WA",
    "details": "Every Tuesday, Featuring: Amateur and Professional comedians trying out new material. Free admission. Shows starting at 9:30pm or later are 21+, earlier shows are 18+ with valid ID. Visit <a href=\"https://www.spokanecomedyclub.com/\" target=\"_blank\" style=\"text-decoration: underline; color: blue;\">Spokane Comedy Club</a> for more info. <a href=\"https://www.google.com/maps/place/Spokane+Comedy+Club/@47.657017,-117.4193719,17z/data=!3m1!4b1!4m6!3m5!1s0x549e1861e8e0198d:0xba09c4ee88e9b25e!8m2!3d47.657017!4d-117.416797!16s%2Fg%2F11cm6j1zpw?entry=ttu\" target=\"_blank\" style=\"text-decoration: underline; color: green;\">View on Google Maps</a>.",
    "lng": -117.569116,
    "lat": 47.492021,
    "googleTimestamp": "2024-08-17T22:25:23.007Z"
  },
  {
    "id": "20",
    "date": "Monday",
    "name": "Open Mic",
    "isRecurring": true,
    "location": "Boomtown Brewery 700 Jackson St, Los Angeles CA",
    "lng": -118.233389,
    "lat": 34.050957,
    "details": "Time: 7:00pm Frequency: Weekly Cost: Free URL: https://www.yelp.com/biz/boomtown-brewery-los-angeles",
    "googleTimestamp": "2024-08-17T22:25:23.007Z"
  },
  {
    "id": "200",
    "date": "Thursday",
    "name": "Open Mic",
    "isRecurring": true,
    "location": "The Comedy Bar 162 E Superior St., Chicago IL",
    "lng": -87.623035,
    "lat": 41.89601,
    "details": "Time: 9:00pm Frequency: Weekly Cost: Free URL: https://www.yelp.com/biz/the-comedy-bar-chicago-4",
    "googleTimestamp": "2024-08-17T22:25:23.007Z"
  },
  {
    "id": "201",
    "date": "Thursday",
    "name": "Open Mic",
    "isRecurring": true,
    "location": "One City Tap 3115 S Archer Ave, Chicago IL",
    "lng": -87.698049,
    "lat": 41.817681,
    "details": "Time: 9:00pm Frequency: Weekly Cost: Free URL: https://www.yelp.com/biz/one-city-tap-chicago-2",
    "googleTimestamp": "2024-08-17T22:25:23.007Z"
  },
  {
    "id": "202",
    "date": "Thursday",
    "name": "Open Mic",
    "isRecurring": true,
    "location": "The Thirsty Tavern 5368 N Milwaukee Ave, Chicago IL",
    "lng": -87.770598,
    "lat": 41.978284,
    "details": "Time: 9:00pm Frequency: Weekly Cost: Free URL: https://www.yelp.com/biz/the-thirsty-tavern-chicago",
    "googleTimestamp": "2024-08-17T22:25:23.007Z"
  },
  {
    "id": "203",
    "date": "Thursday",
    "name": "Open Mic",
    "isRecurring": true,
    "location": "Holiday Club 4000 N Sheridan Rd, Chicago IL",
    "lng": -87.654859,
    "lat": 41.954651,
    "details": "Time: 9:30pm Frequency: Weekly Cost: Free URL: https://www.yelp.com/biz/holiday-club-chicago",
    "googleTimestamp": "2024-08-17T22:25:23.007Z"
  },
  {
    "id": "204",
    "date": "Thursday",
    "name": "Open Mic",
    "isRecurring": true,
    "location": "My Buddy's 4416 N Clark St, Chicago IL",
    "lng": -87.666571,
    "lat": 41.962235,
    "details": "Time: 10:00pm Frequency: Weekly Cost: Free URL: https://www.yelp.com/biz/my-buddys-chicago",
    "googleTimestamp": "2024-08-17T22:25:23.007Z"
  },
  {
    "id": "205",
    "date": "Thursday",
    "name": "Open Mic",
    "isRecurring": true,
    "location": "The Pony Inn 1638 W Belmont Ave, Chicago IL",
    "lng": -87.670188,
    "lat": 41.939942,
    "details": "Time: 10:30pm Frequency: Weekly Cost: Free URL: https://www.yelp.com/biz/the-pony-inn-chicago-2",
    "googleTimestamp": "2024-08-17T22:25:23.007Z"
  },
  {
    "id": "206",
    "date": "Friday",
    "name": "Open Mic",
    "isRecurring": true,
    "lng": -87.673779,
    "location": "FDR Post VFW 1824 W Cortland St, Chicago IL",
    "lat": 41.916278,
    "details": "Time: 8:00pm Frequency: Weekly Cost: Free URL: https://www.yelp.com/biz/american-legion-franklin-delano-roosevelt-post-no-923-chicago",
    "googleTimestamp": "2024-08-17T22:25:23.007Z"
  },
  {
    "id": "207",
    "date": "Friday",
    "name": "Open Mic",
    "isRecurring": true,
    "location": "The Lincoln Lodge 2040 N Milwaukee Ave, Chicago IL",
    "lng": -87.69025,
    "lat": 41.918255,
    "details": "Time: 11:00pm Frequency: Weekly Cost: Free URL: https://www.yelp.com/biz/lincoln-lodge-chicago",
    "googleTimestamp": "2024-08-17T22:25:23.007Z"
  },
  {
    "id": "208",
    "date": "Friday",
    "name": "Open Mic",
    "isRecurring": true,
    "location": "Annoyance Theatre & Bar 851 W Belmont Ave, Chicago IL",
    "lng": -88.173001,
    "lat": 30.509877,
    "details": "Time: 11:00pm Frequency: Weekly Cost: Free URL: https://www.yelp.com/biz/the-annoyance-theatre-and-bar-chicago-2",
    "googleTimestamp": "2024-08-17T22:25:23.007Z"
  },
  {
    "id": "209",
    "date": "Saturday",
    "name": "Open Mic",
    "isRecurring": true,
    "location": "Output Lounge & Sports Bar 3720 N Clark St, Chicago IL",
    "lng": -87.6612676,
    "lat": 41.9496229,
    "details": "Time: 8:00pm Frequency: Weekly Cost: Free URL: https://www.yelp.com/biz/output-wrigleyville-chicago",
    "googleTimestamp": "2024-08-17T22:25:23.007Z"
  },
  {
    "id": "21",
    "date": "Monday",
    "name": "Dollar Mic",
    "isRecurring": true,
    "location": "Def Noodles Comedy Club 7426 Sunset Blvd, Los Angeles CA",
    "lng": -118.351983,
    "lat": 34.097867,
    "details": "Time: 8:00pm Frequency: Weekly Cost: Paid URL: https://www.yelp.com/biz/def-noodles-comedy-club-los-angeles",
    "googleTimestamp": "2024-08-17T22:25:23.007Z"
  },
  {
    "id": "210",
    "date": "Saturday",
    "name": "Open Mic",
    "isRecurring": true,
    "location": "Reggies Chicago 2105 S State St, Chicago IL",
    "lng": -87.626763,
    "lat": 41.853978,
    "details": "Time: 11:59pm Frequency: Weekly Cost: Free URL: https://www.yelp.com/biz/reggies-music-joint-chicago",
    "googleTimestamp": "2024-08-17T22:25:23.007Z"
  },
  {
    "id": "211",
    "date": "Sunday",
    "name": "Open Mic",
    "isRecurring": true,
    "location": "aliveOne 2683 N Halsted St, Chicago IL",
    "lng": -87.648587,
    "lat": 41.931465,
    "details": "Time: 5:30pm Frequency: Weekly Cost: Free URL: https://www.yelp.com/biz/aliveone-chicago",
    "googleTimestamp": "2024-08-17T22:25:23.007Z"
  },
  {
    "id": "212",
    "date": "Sunday",
    "name": "Open Mic",
    "isRecurring": true,
    "location": "Surge Billiards 3716 W Fullerton Ave, Chicago IL",
    "lng": -87.720247,
    "lat": 41.92488,
    "details": "Time: 6:00pm Frequency: Weekly Cost: Free URL: https://www.yelp.com/biz/surge-billiards-chicago-2",
    "googleTimestamp": "2024-08-17T22:25:23.007Z"
  },
  {
    "id": "213",
    "date": "Sunday",
    "name": "Open Mic",
    "isRecurring": true,
    "location": "The iO Theater 1501 N Kingsbury St, Chicago IL",
    "lng": -87.651781,
    "lat": 41.908602,
    "details": "Time: 7:00pm Frequency: Weekly Cost: Free URL: https://ioimprov.com/",
    "googleTimestamp": "2024-08-17T22:25:23.007Z"
  },
  {
    "id": "214",
    "date": "Sunday",
    "lng": -87.657512,
    "name": "Open Mic",
    "isRecurring": false,
    "location": "The Box 1411 1411 West 111th Street, Chicago IL",
    "lat": 41.691918,
    "details": "Time: 7:00pm Frequency: Bi-Weekly Cost: Paid URL: https://allevents.in/org/the-box-1411/19060055",
    "googleTimestamp": "2024-08-17T22:25:23.007Z"
  },
  {
    "id": "215",
    "date": "Sunday",
    "name": "Open Mic",
    "isRecurring": true,
    "location": "Will's Northwoods Inn 3030 N Racine Ave, Chicago IL",
    "lng": -87.659247,
    "lat": 41.937267,
    "details": "Time: 8:00pm Frequency: Weekly Cost: Free URL: https://www.yelp.com/biz/wills-northwoods-inn-chicago?start=240",
    "googleTimestamp": "2024-08-17T22:25:23.007Z"
  },
  {
    "id": "216",
    "date": "Sunday",
    "name": "Open Mic",
    "isRecurring": true,
    "location": "My Buddy's 4416 N Clark St, Chicago IL",
    "lng": -87.666571,
    "lat": 41.962235,
    "details": "Time: 9:00pm Frequency: Weekly Cost: Free URL: https://www.yelp.com/biz/my-buddys-chicago",
    "googleTimestamp": "2024-08-17T22:25:23.008Z"
  },
  {
    "id": "217",
    "date": "Sunday",
    "name": "Comedy Open Mic",
    "isRecurring": true,
    "location": "Draft Bar 8221 W Irving Park Road, Chicago IL",
    "lng": -87.832672,
    "lat": 41.951842,
    "details": "Time: 9:00pm Frequency: Weekly Cost: Free URL: http://draftbarchicago.com/",
    "googleTimestamp": "2024-08-17T22:25:23.008Z"
  },
  {
    "id": "218",
    "date": "Sunday",
    "name": "Open Mic",
    "isRecurring": true,
    "location": "Reed's Local 3017 W Belmont Ave, Chicago IL",
    "lng": -87.703441,
    "lat": 41.939108,
    "details": "Time: 10:00pm Frequency: Weekly Cost: Free URL: https://www.yelp.com/biz/reeds-local-chicago-2",
    "googleTimestamp": "2024-08-17T22:25:23.008Z"
  },
  {
    "id": "219",
    "date": "Wednesday",
    "lng": -117.002633,
    "name": "Open Mic",
    "isRecurring": true,
    "location": "Rants And Raves Brewery 308 N. Jackson, Moscow ID",
    "lat": 46.735005,
    "details": "Time: 7:00pm Frequency: Weekly Cost: Free URL: https://www.yelp.com/biz/rants-and-raves-brewery-moscow",
    "googleTimestamp": "2024-08-17T22:25:23.008Z"
  },
  {
    "id": "22",
    "date": "Monday",
    "name": "Open Mic",
    "isRecurring": true,
    "location": "Tao Comedy Studio 131 S. Western Avenue, Los Angeles CA",
    "lng": -118.30931,
    "lat": 34.07211,
    "details": "Time: 8:00pm Frequency: Weekly Cost: Paid URL: https://www.yelp.com/biz/tao-comedy-studio-los-angeles-2",
    "googleTimestamp": "2024-08-17T22:25:23.008Z"
  },
  {
    "id": "220",
    "date": "Tuesday",
    "name": "Comedy Open Mic Night",
    "isRecurring": true,
    "location": "Crescent Brewery 1521 Front St, Nampa ID",
    "lng": -116.555119,
    "lat": 43.576636,
    "details": "Time: 8:00pm Frequency: Weekly Cost: Free URL: https://www.yelp.com/biz/crescent-brewery-nampa-2",
    "googleTimestamp": "2024-08-17T22:25:23.008Z"
  },
  {
    "id": "221",
    "date": "Tuesday",
    "lng": -112.443284,
    "name": "Open Mic",
    "isRecurring": true,
    "location": "Portneuf Valley Brewing 615 South 1st Avenue, Pocatello ID",
    "lat": 42.859831,
    "details": "Time: 8:00pm Frequency: Weekly Cost: Free URL: https://www.yelp.com/biz/portneuf-valley-brewing-pocatello",
    "googleTimestamp": "2024-08-17T22:25:23.008Z"
  },
  {
    "id": "222",
    "date": "Wednesday",
    "name": "Open Mic",
    "isRecurring": true,
    "location": "Carousel Lounge 3206 Spenard Rd, Anchorage AK",
    "lng": -149.907338,
    "lat": 61.190993,
    "details": "Time: 8:00pm Frequency: Weekly Cost: Free URL: https://www.yelp.com/biz/carousel-cocktail-lounge-anchorage-2",
    "googleTimestamp": "2024-08-17T22:25:23.008Z"
  },
  {
    "id": "223",
    "date": "Sunday",
    "name": "Comedy Open Mic",
    "isRecurring": true,
    "location": "Chilkoot Charlie's 2435 Spenard Road, Anchorage AK",
    "lng": -149.904966,
    "lat": 61.198237,
    "details": "Time: 8:30pm Frequency: Weekly Cost: Free URL: https://www.yelp.com/biz/koots-anchorage-2",
    "googleTimestamp": "2024-08-17T22:25:23.008Z"
  },
  {
    "id": "224",
    "date": "Monday",
    "name": "Open Mic",
    "isRecurring": true,
    "location": "Green Dragon 11 Marshall Street, Boston MA",
    "lng": -71.05684,
    "lat": 42.361479,
    "details": "Time: 9:00pm Frequency: Weekly Cost: Free URL: https://www.yelp.com/biz/the-green-dragon-tavern-boston-2",
    "googleTimestamp": "2024-08-17T22:25:23.008Z"
  },
  {
    "id": "225",
    "date": "Tuesday",
    "name": "Comedy Open Mic",
    "isRecurring": true,
    "location": "The Bebop 1116 Boylston Street, Boston MA",
    "lng": -71.088711,
    "lat": 42.346799,
    "details": "Time: 7:00pm Frequency: Weekly Cost: Free URL: https://www.yelp.com/biz/the-bebop-boston",
    "googleTimestamp": "2024-08-17T22:25:23.008Z"
  },
  {
    "id": "226",
    "date": "Saturday",
    "name": "The Local Connection: Open Mic",
    "isRecurring": true,
    "location": "Lorettas Last Call 1 Landsdowne Street, Boston MA",
    "lng": -71.0970457,
    "lat": 42.3473359,
    "details": "Time: 12:00pm Frequency: Monthly Cost: Free URL: http://www.nextgenerationconcerts.com/",
    "googleTimestamp": "2024-08-17T22:25:23.008Z"
  },
  {
    "id": "227",
    "date": "Sunday",
    "name": "Sunday Funday Open Mic",
    "isRecurring": true,
    "location": "Jacques' Cabaret 79 Broadway St, Boston MA",
    "lng": -71.067451,
    "lat": 42.349987,
    "details": "Time: 6:00pm Frequency: Weekly Cost: Free URL: https://www.yelp.com/biz/jacques-cabaret-boston",
    "googleTimestamp": "2024-08-17T22:25:23.008Z"
  },
  {
    "id": "228",
    "date": "Sunday",
    "name": "Open Mic",
    "isRecurring": true,
    "location": "GrandTen Distilling 383 Dorchester Ave, Boston MA",
    "lng": -71.057205,
    "lat": 42.335082,
    "details": "Time: 7:00pm Frequency: Weekly Cost: Free URL: http://www.grandten.com/",
    "googleTimestamp": "2024-08-17T22:25:23.008Z"
  },
  {
    "id": "229",
    "date": "Monday",
    "name": "Open Mic",
    "isRecurring": true,
    "location": "The PIT 154 W 29th St, New York NY",
    "lng": -73.992226,
    "lat": 40.747465,
    "details": "Time: 4:30pm Frequency: Weekly Cost: Paid URL: https://www.yelp.com/biz/the-pit-loft-new-york",
    "googleTimestamp": "2024-08-17T22:25:23.008Z"
  },
  {
    "id": "23",
    "date": "Monday",
    "name": "Comedy Cookies LA",
    "isRecurring": true,
    "location": "The Escondite 410 Boyd St, Los Angeles CA",
    "lng": -118.242773,
    "lat": 34.046505,
    "details": "Time: 8:00pm Frequency: Weekly Cost: Free URL: https://www.instagram.com/comedycookies_la/",
    "googleTimestamp": "2024-08-17T22:25:23.008Z"
  },
  {
    "id": "230",
    "date": "Monday",
    "name": "Open Mic",
    "isRecurring": true,
    "location": "West Side Comedy Club 201 West 75th Street, New York NY",
    "lng": -73.980466,
    "lat": 40.780769,
    "details": "Time: 4:30pm Frequency: Weekly Cost: Paid URL: https://www.yelp.com/biz/west-side-comedy-club-new-york",
    "googleTimestamp": "2024-08-17T22:25:23.008Z"
  },
  {
    "id": "231",
    "date": "Monday",
    "name": "Laughing Buddha Mic",
    "isRecurring": true,
    "location": "The Stand NYC 116 E. 16th St., New York NY",
    "lng": -73.988348,
    "lat": 40.735421,
    "details": "Time: 5:00pm Frequency: Weekly Cost: Paid URL: http://laughingbuddhacomedy.com/mics",
    "googleTimestamp": "2024-08-17T22:25:23.008Z"
  },
  {
    "id": "232",
    "date": "Monday",
    "name": "Laughing Buddha Mic",
    "isRecurring": true,
    "location": "Grisly Pear Comedy Club 243 West 54th Street, New York NY",
    "lng": -73.983297,
    "lat": 40.76449,
    "details": "Time: 5:00pm Frequency: Weekly Cost: Paid URL: http://laughingbuddhacomedy.com/mics",
    "googleTimestamp": "2024-08-17T22:25:23.008Z"
  },
  {
    "id": "233",
    "date": "Monday",
    "name": "Mondays with Messitte",
    "isRecurring": true,
    "location": "Broadway Comedy Club 318 West 53rd Street, New York NY",
    "lng": -73.985669,
    "lat": 40.764451,
    "details": "Time: 5:00pm Frequency: Weekly Cost: Paid URL: https://www.yelp.com/biz/broadway-comedy-club-new-york",
    "googleTimestamp": "2024-08-17T22:25:23.008Z"
  },
  {
    "id": "234",
    "date": "Monday",
    "name": "Monday Midday Mic",
    "isRecurring": true,
    "location": "Producers Club 358 West 44th Street, New York NY",
    "lng": -73.991498,
    "lat": 40.759545,
    "details": "Time: 5:00pm Frequency: Weekly Cost: Paid URL: https://www.yelp.com/biz/producers-club-theaters-and-bar-new-york-2",
    "googleTimestamp": "2024-08-17T22:25:23.008Z"
  },
  {
    "id": "235",
    "date": "Monday",
    "name": "Bite Me Open Mic",
    "isRecurring": true,
    "location": "Iggy's 1452 2nd Ave., New York NY",
    "lng": -73.956434,
    "lat": 40.77115,
    "details": "Time: 5:30pm Frequency: Weekly Cost: Paid URL: https://www.yelp.com/biz/iggys-new-york",
    "googleTimestamp": "2024-08-17T22:25:23.008Z"
  },
  {
    "id": "236",
    "date": "Monday",
    "name": "Tighten Up Mic",
    "isRecurring": true,
    "location": "Home Sweet Home 131 Chrystie St, New York NY",
    "lng": -73.993362,
    "lat": 40.719457,
    "details": "Time: 6:00pm Frequency: Weekly Cost: Free URL: https://www.yelp.com/biz/home-sweet-home-new-york",
    "googleTimestamp": "2024-08-17T22:25:23.008Z"
  },
  {
    "id": "237",
    "date": "Monday",
    "name": "Barrio Boogie Open Mic",
    "isRecurring": true,
    "location": "Comedy In Harlem 508 East 117th St 2nd Fl, New York NY",
    "lng": -73.932209,
    "lat": 40.795431,
    "details": "Time: 6:00pm Frequency: Weekly Cost: Paid URL: http://comedyinharlem.com/",
    "googleTimestamp": "2024-08-17T22:25:23.008Z"
  },
  {
    "id": "238",
    "date": "Monday",
    "name": "Practice, Practice, Practice",
    "isRecurring": true,
    "location": "Central Park Cafe 910 7th Ave, New York NY",
    "lng": -73.97994,
    "lat": 40.76596,
    "details": "Time: 6:00pm Frequency: Weekly Cost: Paid URL: https://www.yelp.com/biz/central-park-cafe-new-york-3",
    "googleTimestamp": "2024-08-17T22:25:23.008Z"
  },
  {
    "id": "239",
    "date": "Monday",
    "name": "Femmes And Friends",
    "isRecurring": true,
    "location": "Populares 51 Avenue B, New York NY",
    "lng": -73.982526,
    "lat": 40.723082,
    "details": "Time: 6:30pm Frequency: Weekly Cost: Paid URL: https://www.instagram.com/femmesandfriendsmic/",
    "googleTimestamp": "2024-08-17T22:25:23.008Z"
  },
  {
    "id": "24",
    "date": "Monday",
    "name": "Crowd Work Mic",
    "isRecurring": true,
    "location": "Third Wheel Comedy 5176 Santa Monica Blvd, Los Angeles CA",
    "lng": -118.302603,
    "lat": 34.090659,
    "details": "Time: 8:00pm Frequency: Weekly Cost: Free URL: http://thirdwheelcomedy.com/",
    "googleTimestamp": "2024-08-17T22:25:23.008Z"
  },
  {
    "id": "240",
    "date": "Monday",
    "name": "About That Life Comedy Open Mic",
    "isRecurring": true,
    "location": "Tara Rose 384 3rd Avenue, New York NY",
    "lng": -73.981233,
    "lat": 40.741762,
    "details": "Time: 7:00pm Frequency: Weekly Cost: Paid URL: https://www.instagram.com/aboutthatlifecomedy/",
    "googleTimestamp": "2024-08-17T22:25:23.008Z"
  },
  {
    "id": "241",
    "date": "Monday",
    "name": "Comedians On The Loose",
    "isRecurring": true,
    "location": "Black Cat LES 172 Rivington Street, New York NY",
    "lng": -73.984576,
    "lat": 40.719014,
    "details": "Time: 7:30pm Frequency: Weekly Cost: Paid URL: https://www.comediansontheloose.com/open-mics",
    "googleTimestamp": "2024-08-17T22:25:23.008Z"
  },
  {
    "id": "242",
    "date": "Monday",
    "name": "Monday Night Open Mic",
    "isRecurring": true,
    "location": "Nuyorican Poets Cafe 236 East 3rd Street, New York NY",
    "lng": -73.981742,
    "lat": 40.722054,
    "details": "Time: 9:00pm Frequency: Weekly Cost: Paid URL: https://www.yelp.com/biz/nuyorican-poets-cafe-new-york",
    "googleTimestamp": "2024-08-17T22:25:23.008Z"
  },
  {
    "id": "243",
    "date": "Tuesday",
    "name": "Porn Mic",
    "isRecurring": true,
    "location": "Producers Club 358 West 44 St, New York NY",
    "lng": -73.991498,
    "lat": 40.759545,
    "details": "Time: 4:45pm Frequency: Weekly Cost: Paid URL: https://www.yelp.com/biz/producers-club-theaters-and-bar-new-york-2",
    "googleTimestamp": "2024-08-17T22:25:23.008Z"
  },
  {
    "id": "244",
    "date": "Tuesday",
    "isRecurring": true,
    "location": "Greenwich Village Comedy Club 99 Macdougal Street, New York NY",
    "lng": -74.001912,
    "lat": 40.728682,
    "details": "Time: 5:15pm Frequency: Weekly Cost: Paid URL: https://www.yelp.com/biz/greenwich-village-comedy-club-new-york",
    "name": "Steve Aron's Open Mic",
    "googleTimestamp": "2024-08-17T22:25:23.008Z"
  },
  {
    "id": "245",
    "date": "Tuesday",
    "name": "Open Mic",
    "isRecurring": true,
    "location": "St. Marks Comedy Club 12 St. Marks Place, New York NY",
    "lng": -73.989224,
    "lat": 40.729123,
    "details": "Time: 5:30pm Frequency: Weekly Cost: Paid URL: https://www.yelp.com/biz/st-marks-comedy-club-new-york",
    "googleTimestamp": "2024-08-17T22:25:23.008Z"
  },
  {
    "id": "246",
    "date": "Tuesday",
    "name": "Laughing Buddha Mic",
    "isRecurring": true,
    "location": "Grisly Pear Comedy Club 243 West 54th Street, New York NY",
    "lng": -73.983297,
    "lat": 40.76449,
    "details": "Time: 5:45pm Frequency: Weekly Cost: Paid URL: http://laughingbuddhacomedy.com/mics",
    "googleTimestamp": "2024-08-17T22:25:23.008Z"
  },
  {
    "id": "247",
    "date": "Tuesday",
    "name": "Mic Technicians",
    "isRecurring": true,
    "location": "Producers Club 358 West 44th Street, New York NY",
    "lng": -73.991498,
    "lat": 40.759545,
    "details": "Time: 6:00pm Frequency: Weekly Cost: Paid URL: https://www.yelp.com/biz/producers-club-theaters-and-bar-new-york-2",
    "googleTimestamp": "2024-08-17T22:25:23.008Z"
  },
  {
    "id": "248",
    "date": "Tuesday",
    "name": "Tickle Me Tuesdays",
    "isRecurring": true,
    "location": "Coexist Gamehouse 325 W 38th Street, New York NY",
    "lng": -73.992792,
    "lat": 40.755312,
    "details": "Time: 6:00pm Frequency: Weekly Cost: Paid URL: https://www.coexistgaming.com/",
    "googleTimestamp": "2024-08-17T22:25:23.008Z"
  },
  {
    "id": "249",
    "date": "Tuesday",
    "name": "Open Mic",
    "isRecurring": true,
    "location": "Comic Strip Live 1568 2nd Ave, New York NY",
    "lng": -73.953708,
    "lat": 40.774867,
    "details": "Time: 6:00pm Frequency: Weekly Cost: Paid URL: https://www.yelp.com/biz/comic-strip-live-new-york-4",
    "googleTimestamp": "2024-08-17T22:25:23.008Z"
  },
  {
    "id": "25",
    "date": "Monday",
    "name": "Murder The Mic",
    "isRecurring": true,
    "location": "The Platform Shop 1056 Main St, Los Angeles CA",
    "lng": -118.25782,
    "lat": 34.03912,
    "details": "Time: 8:00pm Frequency: Weekly Cost: Paid URL: https://theplatformshop.com/",
    "googleTimestamp": "2024-08-17T22:25:23.008Z"
  },
  {
    "id": "250",
    "date": "Tuesday",
    "name": "Turn Up Tuesdays Open Mic",
    "isRecurring": true,
    "location": "Whiskey Cellar 77 E 7th St, New York NY",
    "lng": -73.986367,
    "lat": 40.727348,
    "details": "Time: 6:00pm Frequency: Weekly Cost: Paid URL: https://www.whiskeycellarnyc.com/",
    "googleTimestamp": "2024-08-17T22:25:23.009Z"
  },
  {
    "id": "251",
    "date": "Tuesday",
    "name": "Suddenly Stand Up",
    "isRecurring": true,
    "location": "The Duplex 61 Christopher Street, New York NY",
    "lng": -74.00249,
    "lat": 40.733744,
    "details": "Time: 6:30pm Frequency: Weekly Cost: Free URL: https://www.yelp.com/biz/the-duplex-new-york",
    "googleTimestamp": "2024-08-17T22:25:23.009Z"
  },
  {
    "id": "252",
    "date": "Tuesday",
    "name": "Say Cheese Mic",
    "isRecurring": true,
    "location": "Rent Money Lounge 85 Stanton Street, New York NY",
    "lng": -73.988778,
    "lat": 40.72145,
    "details": "Time: 6:30pm Frequency: Weekly Cost: Paid URL: https://slotted.co/saycheesemic",
    "googleTimestamp": "2024-08-17T22:25:23.009Z"
  },
  {
    "id": "253",
    "date": "Tuesday",
    "name": "Comedians On The Loose",
    "isRecurring": true,
    "location": "Black Cat LES 172 Rivington Street, New York NY",
    "lng": -73.984576,
    "lat": 40.719014,
    "details": "Time: 7:00pm Frequency: Weekly Cost: Paid URL: https://www.yelp.com/biz/black-cat-les-new-york-2",
    "googleTimestamp": "2024-08-17T22:25:23.009Z"
  },
  {
    "id": "254",
    "date": "Tuesday",
    "name": "Battel Mic",
    "isRecurring": true,
    "location": "Producers Club 358 West 44th Street, New York NY",
    "lng": -73.991498,
    "lat": 40.759545,
    "details": "Time: 7:00pm Frequency: Weekly Cost: Paid URL: https://www.yelp.com/biz/producers-club-theaters-and-bar-new-york-2",
    "googleTimestamp": "2024-08-17T22:25:23.009Z"
  },
  {
    "id": "255",
    "date": "Tuesday",
    "name": "Open Mic",
    "isRecurring": true,
    "location": "Phoenix Bar 447 E 13th St, New York NY",
    "lng": -73.981083,
    "lat": 40.72993,
    "details": "Time: 7:00pm Frequency: Weekly Cost: Paid URL: https://www.yelp.com/biz/phoenix-new-york",
    "googleTimestamp": "2024-08-17T22:25:23.009Z"
  },
  {
    "id": "256",
    "date": "Tuesday",
    "name": "NYC Talent Show",
    "isRecurring": true,
    "location": "The Slipper Room 167 Orchard St, New York NY",
    "lng": -73.988672,
    "lat": 40.721389,
    "details": "Time: 7:30pm Frequency: Weekly Cost: Free URL: http://nyctalentshow.com/",
    "googleTimestamp": "2024-08-17T22:25:23.009Z"
  },
  {
    "id": "257",
    "date": "Tuesday",
    "name": "Laughing Buddha Mic",
    "isRecurring": true,
    "location": "Grisly Pear Comedy Club 243 West 54th Street, New York NY",
    "lng": -73.983297,
    "lat": 40.76449,
    "details": "Time: 8:00pm Frequency: Weekly Cost: Paid URL: http://laughingbuddhacomedy.com/mics",
    "googleTimestamp": "2024-08-17T22:25:23.009Z"
  },
  {
    "id": "258",
    "date": "Tuesday",
    "name": "Hot Mic",
    "isRecurring": true,
    "lng": -73.959197,
    "lat": 40.763751,
    "details": "Time: 8:00pm Frequency: Weekly Cost: Paid URL: https://docs.google.com/forms/d/15jDWo7QKQJmXclr9pldQEect9ERz14fFs-k2XsQKtYY/viewform?edit_requested=true#responses",
    "location": "Somebody's Darling 1664 1st Ave, New York NY",
    "googleTimestamp": "2024-08-17T22:25:23.009Z"
  },
  {
    "id": "259",
    "date": "Tuesday",
    "name": "The Bar Mic",
    "isRecurring": true,
    "lng": -81.803695,
    "lat": 39.530275,
    "details": "Time: 8:00pm Frequency: Weekly Cost: Paid URL: https://www.yelp.com/biz/teddys-bar-and-grill-new-york",
    "location": "Teddy's F&B Bar And Grill 2171 2nd Ave, New York NY",
    "googleTimestamp": "2024-08-17T22:25:23.009Z"
  },
  {
    "id": "26",
    "date": "Monday",
    "name": "Comedy Night",
    "isRecurring": true,
    "location": "Lyric Hyperion 2106 Hyperion Ave, Los Angeles CA",
    "lng": -118.273682,
    "lat": 34.09901,
    "details": "Time: 9:00pm Frequency: Weekly Cost: Free URL: https://www.yelp.com/biz/the-lyric-hyperion-los-angeles-3",
    "googleTimestamp": "2024-08-17T22:25:23.009Z"
  },
  {
    "id": "260",
    "date": "Tuesday",
    "name": "Comedians On The Loose",
    "isRecurring": true,
    "location": "Black Cat LES 172 Rivington Street, New York NY",
    "lng": -73.984576,
    "lat": 40.719014,
    "details": "Time: 9:00pm Frequency: Weekly Cost: Paid URL: https://www.yelp.com/biz/black-cat-les-new-york-2",
    "googleTimestamp": "2024-08-17T22:25:23.009Z"
  },
  {
    "id": "261",
    "date": "Tuesday",
    "name": "Laughing Buddha Mic",
    "isRecurring": true,
    "location": "Grisly Pear Comedy Club 243 West 54th Street, New York NY",
    "lng": -73.983297,
    "lat": 40.76449,
    "details": "Time: 10:00pm Frequency: Weekly Cost: Paid URL: http://laughingbuddhacomedy.com/mics",
    "googleTimestamp": "2024-08-17T22:25:23.009Z"
  },
  {
    "id": "262",
    "date": "Wednesday",
    "name": "Sean Conrad's Open Mic",
    "isRecurring": true,
    "location": "West Side Comedy Club 201 West 75th Street, New York NY",
    "lng": -73.980466,
    "lat": 40.780769,
    "details": "Time: 12:00pm Frequency: Weekly Cost: Paid URL: https://www.fcomedyclub.com/open-mics-calendar",
    "googleTimestamp": "2024-08-17T22:25:23.009Z"
  },
  {
    "id": "263",
    "date": "Wednesday",
    "name": "The Drew And Peter Mic",
    "isRecurring": true,
    "location": "Greenwich Village Comedy Club 99 Macdougal Street, New York NY",
    "lng": -74.001912,
    "lat": 40.728682,
    "details": "Time: 1:00pm Frequency: Weekly Cost: Paid URL: https://www.yelp.com/biz/greenwich-village-comedy-club-new-york",
    "googleTimestamp": "2024-08-17T22:25:23.009Z"
  },
  {
    "id": "264",
    "date": "Wednesday",
    "name": "The Drew And Peter Mic",
    "isRecurring": true,
    "location": "Greenwich Village Comedy Club 99 Macdougal Street, New York NY",
    "lng": -74.001912,
    "lat": 40.728682,
    "details": "Time: 3:00pm Frequency: Weekly Cost: Paid URL: https://www.yelp.com/biz/greenwich-village-comedy-club-new-york",
    "googleTimestamp": "2024-08-17T22:25:23.009Z"
  },
  {
    "id": "265",
    "date": "Wednesday",
    "name": "Get It Going",
    "isRecurring": true,
    "location": "Broadway Comedy Club 318 West 53rd Street, New York NY",
    "lng": -73.985669,
    "lat": 40.764451,
    "details": "Time: 3:00pm Frequency: Weekly Cost: Paid URL: https://slotted.co/wednesdaymic",
    "googleTimestamp": "2024-08-17T22:25:23.009Z"
  },
  {
    "id": "266",
    "date": "Wednesday",
    "name": "Wake That Ass Up Open Mic",
    "isRecurring": true,
    "location": "Barcelona Bar 923 8th Avenue, New York NY",
    "lng": -73.984116,
    "lat": 40.765331,
    "details": "Time: 4:00pm Frequency: Weekly Cost: Paid URL: https://www.yelp.com/biz/barcelona-bar-new-york",
    "googleTimestamp": "2024-08-17T22:25:23.009Z"
  },
  {
    "id": "267",
    "date": "Wednesday",
    "name": "The Drew And Peter Mic",
    "isRecurring": true,
    "location": "Greenwich Village Comedy Club 99 Macdougal Street, New York NY",
    "lng": -74.001912,
    "lat": 40.728682,
    "details": "Time: 5:00pm Frequency: Weekly Cost: Paid URL: https://www.yelp.com/biz/greenwich-village-comedy-club-new-york",
    "googleTimestamp": "2024-08-17T22:25:23.009Z"
  },
  {
    "id": "268",
    "date": "Wednesday",
    "name": "Laughing Buddha Mic",
    "isRecurring": true,
    "location": "Grisly Pear Comedy Club 243 West 54th Street, New York NY",
    "lng": -73.983297,
    "lat": 40.76449,
    "details": "Time: 5:00pm Frequency: Weekly Cost: Paid URL: http://laughingbuddhacomedy.com/mics",
    "googleTimestamp": "2024-08-17T22:25:23.009Z"
  },
  {
    "id": "269",
    "date": "Wednesday",
    "name": "Dave Labarca Open Mic",
    "isRecurring": true,
    "location": "Producers Club 358 West 44th Street, New York NY",
    "lng": -73.991498,
    "lat": 40.759545,
    "details": "Time: 5:00pm Frequency: Weekly Cost: Paid URL: https://forms.gle/UcW15xaGNhLNmTxw8",
    "googleTimestamp": "2024-08-17T22:25:23.009Z"
  },
  {
    "id": "27",
    "date": "Monday",
    "name": "Leg Room",
    "isRecurring": true,
    "location": "Third Wheel Comedy 5176 Santa Monica Blvd, Los Angeles CA",
    "lng": -118.302603,
    "lat": 34.090659,
    "details": "Time: 10:00pm Frequency: Weekly Cost: Free URL: http://thirdwheelcomedy.com/",
    "googleTimestamp": "2024-08-17T22:25:23.009Z"
  },
  {
    "id": "270",
    "date": "Wednesday",
    "name": "Open Mic",
    "isRecurring": true,
    "location": "St. Marks Comedy Club 12 St. Marks Place, New York NY",
    "lng": -73.989224,
    "lat": 40.729123,
    "details": "Time: 5:30pm Frequency: Weekly Cost: Paid URL: https://www.yelp.com/biz/st-marks-comedy-club-new-york",
    "googleTimestamp": "2024-08-17T22:25:23.009Z"
  },
  {
    "id": "271",
    "date": "Wednesday",
    "name": "Lisa's Clubhouse",
    "isRecurring": true,
    "location": "Phoenix Bar 447 E 13th St, New York NY",
    "lng": -73.981083,
    "lat": 40.72993,
    "details": "Time: 6:00pm Frequency: Weekly Cost: Paid URL: https://www.yelp.com/biz/phoenix-new-york",
    "googleTimestamp": "2024-08-17T22:25:23.009Z"
  },
  {
    "id": "272",
    "date": "Wednesday",
    "name": "Laughing Buddha Mic",
    "isRecurring": true,
    "location": "Rodney's 1118 1st Ave, New York NY",
    "lng": -73.960684,
    "lat": 40.761069,
    "details": "Time: 6:00pm Frequency: Weekly Cost: Paid URL: http://laughingbuddhacomedy.com/mics",
    "googleTimestamp": "2024-08-17T22:25:23.009Z"
  },
  {
    "id": "273",
    "date": "Wednesday",
    "name": "On The Wagon: A Sober Mic",
    "isRecurring": true,
    "location": "Up And Up Nyc 163 W 72nd St, New York NY",
    "lng": -73.980857,
    "lat": 40.778454,
    "details": "Time: 6:00pm Frequency: Weekly Cost: Paid URL: https://www.yelp.com/biz/hungry-and-healthy-market-place-new-york",
    "googleTimestamp": "2024-08-17T22:25:23.009Z"
  },
  {
    "id": "274",
    "date": "Wednesday",
    "name": "FM Open Mic",
    "isRecurring": true,
    "location": "Whiskey Cellar 77 E 7th St, New York NY",
    "lng": -73.986367,
    "lat": 40.727348,
    "details": "Time: 6:00pm Frequency: Weekly Cost: Paid URL: https://linktr.ee/laughpackproductions",
    "googleTimestamp": "2024-08-17T22:25:23.009Z"
  },
  {
    "id": "275",
    "date": "Wednesday",
    "name": "I Can't Buddy Hack It",
    "isRecurring": true,
    "location": "Popped NYC 219 Madison St., New York NY",
    "lng": -73.988939,
    "lat": 40.712854,
    "details": "Time: 7:00pm Frequency: Weekly Cost: Paid URL: https://www.yelp.com/biz/popped-new-york-4",
    "googleTimestamp": "2024-08-17T22:25:23.009Z"
  },
  {
    "id": "276",
    "date": "Wednesday",
    "name": "Dyna-mic",
    "isRecurring": true,
    "location": "Producers Club 358 West 44th Street, New York NY",
    "lng": -73.991498,
    "lat": 40.759545,
    "details": "Time: 7:00pm Frequency: Weekly Cost: Paid URL: https://www.yelp.com/biz/producers-club-theaters-and-bar-new-york-2",
    "googleTimestamp": "2024-08-17T22:25:23.009Z"
  },
  {
    "id": "277",
    "date": "Wednesday",
    "name": "Club Of Comedy Open Mic",
    "isRecurring": true,
    "location": "Caravan Of Dreams 405 East 6th St, New York NY",
    "lng": -73.985708,
    "lat": 40.726311,
    "details": "Time: 7:00pm Frequency: Weekly Cost: Paid URL: https://www.yelp.com/biz/caravan-of-dreams-new-york",
    "googleTimestamp": "2024-08-17T22:25:23.009Z"
  },
  {
    "id": "278",
    "date": "Wednesday",
    "name": "Stand Up And Work It Out",
    "isRecurring": true,
    "location": "Comedy In Harlem 508 East 117th St 2nd Fl, New York NY",
    "lng": -73.932209,
    "lat": 40.795431,
    "details": "Time: 7:00pm Frequency: Weekly Cost: Paid URL: http://www.standupandworkitout.com/",
    "googleTimestamp": "2024-08-17T22:25:23.009Z"
  },
  {
    "id": "279",
    "date": "Wednesday",
    "name": "DTJB Open Mic",
    "isRecurring": true,
    "location": "Downtown Juice Bar 129 Rivington St, New York NY",
    "lng": -73.986957,
    "lat": 40.71957,
    "details": "Time: 8:00pm Frequency: Weekly Cost: Paid URL: https://www.yelp.com/biz/downtown-juice-bar-new-york",
    "googleTimestamp": "2024-08-17T22:25:23.009Z"
  },
  {
    "id": "28",
    "date": "Monday",
    "name": "Midnight Madness",
    "isRecurring": true,
    "location": "Third Wheel Comedy 5176 Santa Monica Blvd, Los Angeles CA",
    "lng": -118.302603,
    "lat": 34.090659,
    "details": "Time: 11:45pm Frequency: Weekly Cost: Free URL: http://thirdwheelcomedy.com/",
    "googleTimestamp": "2024-08-17T22:25:23.009Z"
  },
  {
    "id": "280",
    "date": "Wednesday",
    "isRecurring": true,
    "location": "Soho Playhouse 15 Vandam St, New York NY",
    "lng": -74.004382,
    "lat": 40.726421,
    "details": "Time: 9:30pm Frequency: Weekly Cost: Paid URL: https://www.instagram.com/cuckoos_openmic",
    "name": "Cuckoo's Open Mic",
    "googleTimestamp": "2024-08-17T22:25:23.010Z"
  },
  {
    "id": "281",
    "date": "Wednesday",
    "name": "Bad Comedy Open Mic",
    "isRecurring": true,
    "location": "Josie Woods Pub 11 Waverly Pl, New York NY",
    "lng": -73.994158,
    "lat": 40.730138,
    "details": "Time: 11:00pm Frequency: Weekly Cost: Paid URL: https://www.yelp.com/biz/josie-woods-pub-new-york-2",
    "googleTimestamp": "2024-08-17T22:25:23.010Z"
  },
  {
    "id": "282",
    "date": "Wednesday",
    "name": "Roast Mic - Comedy Justice",
    "isRecurring": true,
    "location": "Josie Woods Pub 11 Waverly Pl, New York NY",
    "lng": -73.994158,
    "lat": 40.730138,
    "details": "Time: 11:59pm Frequency: Weekly Cost: Paid URL: https://www.yelp.com/biz/josie-woods-pub-new-york-2",
    "googleTimestamp": "2024-08-17T22:25:23.010Z"
  },
  {
    "id": "283",
    "date": "Thursday",
    "name": "F Comedy Club Open Mic",
    "isRecurring": true,
    "location": "West Side Comedy Club 201 West 75th Street, New York NY",
    "lng": -73.980466,
    "lat": 40.780769,
    "details": "Time: 12:00pm Frequency: Weekly Cost: Paid URL: https://www.yelp.com/biz/west-side-comedy-club-new-york",
    "googleTimestamp": "2024-08-17T22:25:23.010Z"
  },
  {
    "id": "284",
    "date": "Thursday",
    "name": "Get It Going",
    "isRecurring": true,
    "location": "Broadway Comedy Club 318 West 53rd Street, New York NY",
    "lng": -73.985669,
    "lat": 40.764451,
    "details": "Time: 3:00pm Frequency: Weekly Cost: Paid URL: https://slotted.co/gig-mic",
    "googleTimestamp": "2024-08-17T22:25:23.010Z"
  },
  {
    "id": "285",
    "date": "Thursday",
    "name": "FUNY Open Mic",
    "isRecurring": true,
    "location": "West Side Comedy Club 201 West 75th Street, New York NY",
    "lng": -73.980466,
    "lat": 40.780769,
    "details": "Time: 3:00pm Frequency: Weekly Cost: Paid URL: https://www.yelp.com/biz/west-side-comedy-club-new-york",
    "googleTimestamp": "2024-08-17T22:25:23.010Z"
  },
  {
    "id": "286",
    "date": "Thursday",
    "name": "The Drew And Peter Mic",
    "isRecurring": true,
    "location": "Greenwich Village Comedy Club 99 Macdougal Street, New York NY",
    "lng": -74.001912,
    "lat": 40.728682,
    "details": "Time: 4:00pm Frequency: Weekly Cost: Paid URL: https://www.yelp.com/biz/greenwich-village-comedy-club-new-york",
    "googleTimestamp": "2024-08-17T22:25:23.010Z"
  },
  {
    "id": "287",
    "date": "Thursday",
    "name": "Laughing Buddha Mic",
    "isRecurring": true,
    "location": "St. Marks Comedy Club 12 St. Marks Place, New York NY",
    "lng": -73.989224,
    "lat": 40.729123,
    "details": "Time: 4:30pm Frequency: Weekly Cost: Paid URL: http://laughingbuddhacomedy.com/mics",
    "googleTimestamp": "2024-08-17T22:25:23.010Z"
  },
  {
    "id": "288",
    "date": "Thursday",
    "name": "Stand And Deliver",
    "isRecurring": true,
    "location": "The Stand NYC 116 E. 16th St., New York NY",
    "lng": -73.988348,
    "lat": 40.735421,
    "details": "Time: 5:00pm Frequency: Weekly Cost: Paid URL: https://www.facebook.com/groups/toxicmicnyc",
    "googleTimestamp": "2024-08-17T22:25:23.010Z"
  },
  {
    "id": "289",
    "date": "Thursday",
    "name": "Get It Going",
    "isRecurring": true,
    "location": "Broadway Comedy Club 318 West 53rd Street, New York NY",
    "lng": -73.985669,
    "lat": 40.764451,
    "details": "Time: 5:00pm Frequency: Weekly Cost: Paid URL: https://slotted.co/gig-mic",
    "googleTimestamp": "2024-08-17T22:25:23.010Z"
  },
  {
    "id": "29",
    "date": "Tuesday",
    "name": "Melrose Comedy School",
    "isRecurring": true,
    "location": "Pauhaus 5235 Melrose Ave, Los Angeles CA",
    "lng": -118.325333,
    "lat": 34.083342,
    "details": "Time: 2:00pm Frequency: Weekly Cost: Paid URL: https://pauhausgallery.com/",
    "googleTimestamp": "2024-08-17T22:25:23.010Z"
  },
  {
    "id": "290",
    "date": "Thursday",
    "name": "Laughing Buddha Mic",
    "isRecurring": true,
    "location": "Grisly Pear Comedy Club 243 West 54th Street, New York NY",
    "lng": -73.983297,
    "lat": 40.76449,
    "details": "Time: 5:00pm Frequency: Weekly Cost: Paid URL: http://laughingbuddhacomedy.com/mics",
    "googleTimestamp": "2024-08-17T22:25:23.010Z"
  },
  {
    "id": "291",
    "date": "Thursday",
    "name": "Open Mic",
    "isRecurring": true,
    "location": "Comic Strip Live 1568 2nd Ave, New York NY",
    "lng": -73.953708,
    "lat": 40.774867,
    "details": "Time: 5:30pm Frequency: Weekly Cost: Paid URL: https://www.yelp.com/biz/comic-strip-live-new-york-4",
    "googleTimestamp": "2024-08-17T22:25:23.010Z"
  },
  {
    "id": "292",
    "date": "Thursday",
    "name": "Bite Me Open Mic",
    "isRecurring": true,
    "location": "Iggy's 1452 2nd Ave., New York NY",
    "lng": -73.956434,
    "lat": 40.77115,
    "details": "Time: 5:30pm Frequency: Weekly Cost: Paid URL: https://www.yelp.com/biz/iggys-new-york",
    "googleTimestamp": "2024-08-17T22:25:23.011Z"
  },
  {
    "id": "293",
    "date": "Thursday",
    "name": "@micdupnyc",
    "isRecurring": true,
    "location": "Producers Club 358 West 44th Street, New York NY",
    "lng": -73.991498,
    "lat": 40.759545,
    "details": "Time: 6:00pm Frequency: Weekly Cost: Paid URL: https://www.yelp.com/biz/producers-club-theaters-and-bar-new-york-2",
    "googleTimestamp": "2024-08-17T22:25:23.011Z"
  },
  {
    "id": "294",
    "date": "Thursday",
    "name": "Comedy Mob Open Mic",
    "isRecurring": true,
    "location": "New York Comedy Club 241 E 24th St, New York NY",
    "lng": -73.980868,
    "lat": 40.738845,
    "details": "Time: 6:00pm Frequency: Weekly Cost: Free URL: https://www.yelp.com/biz/new-york-comedy-club-new-york-5",
    "googleTimestamp": "2024-08-17T22:25:23.011Z"
  },
  {
    "id": "295",
    "date": "Thursday",
    "name": "Comedians On The Loose",
    "isRecurring": true,
    "location": "Black Cat LES 172 Rivington St, New York NY",
    "lng": -73.984576,
    "lat": 40.719014,
    "details": "Time: 7:00pm Frequency: Weekly Cost: Paid URL: https://www.yelp.com/biz/black-cat-les-new-york-2",
    "googleTimestamp": "2024-08-17T22:25:23.011Z"
  },
  {
    "id": "296",
    "date": "Thursday",
    "name": "@micdupnyc",
    "isRecurring": true,
    "location": "Producers Club 358 West 44th Street, New York NY",
    "lng": -73.991498,
    "lat": 40.759545,
    "details": "Time: 7:30pm Frequency: Weekly Cost: Paid URL: https://www.yelp.com/biz/producers-club-theaters-and-bar-new-york-2",
    "googleTimestamp": "2024-08-17T22:25:23.011Z"
  },
  {
    "id": "297",
    "date": "Thursday",
    "name": "Comedians On The Loose",
    "isRecurring": true,
    "location": "Black Cat LES 172 Rivington Street, New York NY",
    "lng": -73.984576,
    "lat": 40.719014,
    "details": "Time: 9:00pm Frequency: Weekly Cost: Paid URL: https://www.yelp.com/biz/black-cat-les-new-york-2",
    "googleTimestamp": "2024-08-17T22:25:23.011Z"
  },
  {
    "id": "298",
    "date": "Thursday",
    "name": "@micdupnyc",
    "isRecurring": true,
    "location": "Producers Club 358 West 44th Street, New York NY",
    "lng": -73.991498,
    "lat": 40.759545,
    "details": "Time: 9:00pm Frequency: Weekly Cost: Paid URL: https://www.yelp.com/biz/producers-club-theaters-and-bar-new-york-2",
    "googleTimestamp": "2024-08-17T22:25:23.011Z"
  },
  {
    "id": "299",
    "date": "Thursday",
    "name": "Huron Club Thursday Night Mic",
    "isRecurring": true,
    "location": "Soho Playhouse 15 Vandam St, New York NY",
    "lng": -74.004382,
    "lat": 40.726421,
    "details": "Time: 10:30pm Frequency: Weekly Cost: Free URL: https://www.yelp.com/biz/soho-playhouse-new-york",
    "googleTimestamp": "2024-08-17T22:25:23.011Z"
  },
  {
    "id": "3",
    "date": "Tuesday",
    "name": "T'S ON A TUESDAY",
    "isRecurring": true,
    "location": "T's Lounge, Spokane WA",
    "lng": -117.435997,
    "lat": 47.66264,
    "details": "Signup in person at 7:45pm. starts at 8pm usually 9ish on New Talent Nights. What's a comedy scene without a dive bar mic? T's On A Tuesday has been going strong for years and is the perfect place to test out your newest material.  <a href=\"https://tsspokane.com/\">tsspokane.com</a> <a href=\"https://www.google.com/maps/place/T's+Lounge/@47.6636398,-117.4294504,17z/data=!3m1!4b1!4m6!3m5!1s0x549e185ed5817429:0x475d58f4a48ae52b!8m2!3d47.6636398!4d-117.4268755!16s%2Fg%2F11c5ss4c1c?entry=ttu\" ttarget=\"_blank\" style=\"text-decoration: underline; color: green;\">View on Google Maps</a>",
    "googleTimestamp": "2024-08-17T22:25:23.011Z"
  },
  {
    "id": "30",
    "date": "Tuesday",
    "name": "Open Mic",
    "isRecurring": true,
    "location": "Laugh Factory 8001 Sunset Blvd., Los Angeles CA",
    "lng": -118.364464,
    "lat": 34.097859,
    "details": "Time: 4:30pm Frequency: Weekly Cost: Paid URL: http://www.laughfactory.com/",
    "googleTimestamp": "2024-08-17T22:25:23.011Z"
  },
  {
    "id": "300",
    "date": "Friday",
    "name": "F Comedy Club Open Mic",
    "isRecurring": true,
    "location": "West Side Comedy Club 201 West 75th Street, New York NY",
    "lng": -73.980466,
    "lat": 40.780769,
    "details": "Time: 12:00pm Frequency: Weekly Cost: Paid URL: https://www.yelp.com/biz/west-side-comedy-club-new-york",
    "googleTimestamp": "2024-08-17T22:25:23.011Z"
  },
  {
    "id": "301",
    "date": "Friday",
    "name": "The Drew And Peter Mic",
    "isRecurring": true,
    "location": "Greenwich Village Comedy Club 99 Macdougal Street, New York NY",
    "lng": -74.001912,
    "lat": 40.728682,
    "details": "Time: 1:00pm Frequency: Weekly Cost: Paid URL: https://www.yelp.com/biz/greenwich-village-comedy-club-new-york",
    "googleTimestamp": "2024-08-17T22:25:23.011Z"
  },
  {
    "id": "302",
    "date": "Friday",
    "name": "The Drew And Peter Mic",
    "isRecurring": true,
    "location": "Greenwich Village Comedy Club 99 Macdougal Street, New York NY",
    "lng": -74.001912,
    "lat": 40.728682,
    "details": "Time: 3:00pm Frequency: Weekly Cost: Paid URL: https://www.yelp.com/biz/greenwich-village-comedy-club-new-york",
    "googleTimestamp": "2024-08-17T22:25:23.011Z"
  },
  {
    "id": "303",
    "date": "Friday",
    "name": "Open Mic",
    "isRecurring": true,
    "location": "Broadway Comedy Club 318 West 53rd Street, New York NY",
    "lng": -73.985669,
    "lat": 40.764451,
    "details": "Time: 4:00pm Frequency: Weekly Cost: Paid URL: https://www.yelp.com/biz/broadway-comedy-club-new-york",
    "googleTimestamp": "2024-08-17T22:25:23.011Z"
  },
  {
    "id": "304",
    "date": "Friday",
    "name": "West Side Friday",
    "isRecurring": true,
    "location": "West Side Comedy Club 201 West 75th Street, New York NY",
    "lng": -73.980466,
    "lat": 40.780769,
    "details": "Time: 4:00pm Frequency: Weekly Cost: Paid URL: https://www.fcomedyclub.com/open-mics-calendar",
    "googleTimestamp": "2024-08-17T22:25:23.011Z"
  },
  {
    "id": "305",
    "date": "Friday",
    "name": "Laughing Buddha Mic",
    "isRecurring": true,
    "location": "St. Marks Comedy Club 12 St. Marks Place, New York NY",
    "lng": -73.989224,
    "lat": 40.729123,
    "details": "Time: 4:30pm Frequency: Weekly Cost: Paid URL: http://laughingbuddhacomedy.com/mics",
    "googleTimestamp": "2024-08-17T22:25:23.012Z"
  },
  {
    "id": "306",
    "date": "Friday",
    "name": "Laughing Buddha Mic",
    "isRecurring": true,
    "location": "Grisly Pear Comedy Club 243 West 54th Street, New York NY",
    "lng": -73.983297,
    "lat": 40.76449,
    "details": "Time: 5:00pm Frequency: Weekly Cost: Paid URL: http://laughingbuddhacomedy.com/mics",
    "googleTimestamp": "2024-08-17T22:25:23.012Z"
  },
  {
    "id": "307",
    "date": "Friday",
    "name": "Comedy Mob Open Mic",
    "isRecurring": true,
    "location": "Rodney's 1118 1st Ave, New York NY",
    "lng": -73.960684,
    "lat": 40.761069,
    "details": "Time: 6:00pm Frequency: Weekly Cost: Free URL: https://www.yelp.com/biz/rodney-s-new-york",
    "googleTimestamp": "2024-08-17T22:25:23.012Z"
  },
  {
    "id": "308",
    "date": "Friday",
    "name": "Open Mic",
    "isRecurring": true,
    "location": "Producers Club 358 West 44th Street, New York NY",
    "lng": -73.991498,
    "lat": 40.759545,
    "details": "Time: 6:30pm Frequency: Weekly Cost: Paid URL: https://www.yelp.com/biz/producers-club-theaters-and-bar-new-york-2",
    "googleTimestamp": "2024-08-17T22:25:23.012Z"
  },
  {
    "id": "309",
    "date": "Friday",
    "name": "Current Events With Allison",
    "isRecurring": true,
    "location": "Global Comedy Studios 154 W 29th Street, New York NY",
    "lng": -73.992226,
    "lat": 40.747465,
    "details": "Time: 6:30pm Frequency: Weekly Cost: Paid URL: https://thepit-nyc.com/events/current-events-open-mic/",
    "googleTimestamp": "2024-08-17T22:25:23.012Z"
  },
  {
    "id": "31",
    "date": "Tuesday",
    "name": "Open Mic",
    "isRecurring": true,
    "location": "Hollywood Improv 8162 Melrose Avenue, Los Angeles CA",
    "lng": -118.367153,
    "lat": 34.083577,
    "details": "Time: 5:00pm Frequency: Weekly Cost: Free URL: https://www.yelp.com/biz/improv-comedy-club-hollywood",
    "googleTimestamp": "2024-08-17T22:25:23.012Z"
  },
  {
    "id": "310",
    "date": "Saturday",
    "name": "Open Mic",
    "isRecurring": true,
    "location": "Pioneers Bar 138 W 29th St, New York NY",
    "lng": -73.990975,
    "lat": 40.746992,
    "details": "Time: 1:00pm Frequency: Weekly Cost: Paid URL: https://www.yelp.com/biz/pioneers-new-york-2",
    "googleTimestamp": "2024-08-17T22:25:23.012Z"
  },
  {
    "id": "311",
    "date": "Saturday",
    "name": "F Comedy Club Open Mic",
    "isRecurring": true,
    "location": "West Side Comedy Club 201 West 75th Street, New York NY",
    "lng": -73.980466,
    "lat": 40.780769,
    "details": "Time: 1:00pm Frequency: Weekly Cost: Paid URL: https://www.yelp.com/biz/west-side-comedy-club-new-york",
    "googleTimestamp": "2024-08-17T22:25:23.012Z"
  },
  {
    "id": "312",
    "date": "Saturday",
    "name": "Laughing Buddha Mic",
    "isRecurring": true,
    "location": "The Stand NYC 116 E. 16th St., New York NY",
    "lng": -73.988348,
    "lat": 40.735421,
    "details": "Time: 2:30pm Frequency: Weekly Cost: Paid URL: http://laughingbuddhacomedy.com/mics",
    "googleTimestamp": "2024-08-17T22:25:23.012Z"
  },
  {
    "id": "313",
    "date": "Saturday",
    "name": "Laughing Buddha Mic",
    "isRecurring": true,
    "location": "Grisly Pear Comedy Club 243 West 54th Street, New York NY",
    "lng": -73.983297,
    "lat": 40.76449,
    "details": "Time: 3:00pm Frequency: Weekly Cost: Paid URL: http://laughingbuddhacomedy.com/mics",
    "googleTimestamp": "2024-08-17T22:25:23.012Z"
  },
  {
    "id": "314",
    "date": "Saturday",
    "name": "Lifeboat Mic",
    "isRecurring": true,
    "location": "Soho Playhouse 15 Vandam St, New York NY",
    "lng": -74.004382,
    "lat": 40.726421,
    "details": "Time: 3:00pm Frequency: Weekly Cost: Free URL: http://instagram.com/lifeboatmic",
    "googleTimestamp": "2024-08-17T22:25:23.012Z"
  },
  {
    "id": "315",
    "date": "Saturday",
    "name": "Open Mic",
    "isRecurring": true,
    "location": "St. Marks Comedy Club 12 St. Marks Place, New York NY",
    "lng": -73.989224,
    "lat": 40.729123,
    "details": "Time: 4:00pm Frequency: Weekly Cost: Paid URL: https://slotted.co/59lxm5ca",
    "googleTimestamp": "2024-08-17T22:25:23.012Z"
  },
  {
    "id": "316",
    "date": "Saturday",
    "name": "Saturday Tight Five",
    "isRecurring": true,
    "location": "Claire's Kitchen Cafe Harlem 19 St. Nicholas Avenue, New York NY",
    "lng": -73.940385,
    "lat": 40.834186,
    "details": "Time: 4:00pm Frequency: Weekly Cost: Paid URL: https://linktr.ee/barakziv",
    "googleTimestamp": "2024-08-17T22:25:23.012Z"
  },
  {
    "id": "317",
    "date": "Saturday",
    "name": "Laughing Buddha Mic",
    "isRecurring": true,
    "location": "Grisly Pear Comedy Club 243 West 54th Street, New York NY",
    "lng": -73.983297,
    "lat": 40.76449,
    "details": "Time: 4:30pm Frequency: Weekly Cost: Paid URL: http://laughingbuddhacomedy.com/mics",
    "googleTimestamp": "2024-08-17T22:25:23.012Z"
  },
  {
    "id": "318",
    "date": "Saturday",
    "name": "Open Mic",
    "isRecurring": false,
    "location": "Comic Strip Live 1568 2nd Ave, New York NY",
    "lng": -73.953708,
    "lat": 40.774867,
    "details": "Time: 5:00pm Frequency: Bi-Weekly Cost: Paid URL: http://comicstriplive.com/",
    "googleTimestamp": "2024-08-17T22:25:23.012Z"
  },
  {
    "id": "319",
    "date": "Saturday",
    "name": "Ladies Stand-Up! (Men Sit Down)",
    "isRecurring": true,
    "location": "The PIT 156 W 29th St, New York NY",
    "lng": -73.992298,
    "lat": 40.747493,
    "details": "Time: 6:30pm Frequency: Weekly Cost: Paid URL: https://thepit-nyc.com/events/ladies-stand-up-men-sit-down-open-mic/",
    "googleTimestamp": "2024-08-17T22:25:23.012Z"
  },
  {
    "id": "32",
    "date": "Tuesday",
    "name": "Testing Testing Tuesday Mic",
    "isRecurring": true,
    "location": "Comedy Blvd 7924 Beverly Blvd, Los Angeles CA",
    "lng": -118.361926,
    "lat": 34.075952,
    "details": "Time: 5:00pm Frequency: Weekly Cost: Paid URL: https://www.instagram.com/testingtuesdaymic/",
    "googleTimestamp": "2024-08-17T22:25:23.012Z"
  },
  {
    "id": "320",
    "date": "Saturday",
    "name": "Comedians On The Loose",
    "isRecurring": true,
    "location": "Black Cat LES 172 Rivington Street, New York NY",
    "lng": -73.984576,
    "lat": 40.719014,
    "details": "Time: 7:00pm Frequency: Weekly Cost: Paid URL: https://www.yelp.com/biz/black-cat-les-new-york-2",
    "googleTimestamp": "2024-08-17T22:25:23.012Z"
  },
  {
    "id": "321",
    "date": "Saturday",
    "name": "Comedians On The Loose",
    "isRecurring": true,
    "location": "Black Cat LES 172 Rivington Street, New York NY",
    "lng": -73.984576,
    "lat": 40.719014,
    "details": "Time: 9:00pm Frequency: Weekly Cost: Paid URL: https://www.yelp.com/biz/black-cat-les-new-york-2",
    "googleTimestamp": "2024-08-17T22:25:23.012Z"
  },
  {
    "id": "322",
    "date": "Sunday",
    "name": "Laughter Non-Conforming",
    "isRecurring": true,
    "location": "GAMA Lounge 50 Avenue B, New York NY",
    "lng": -73.982715,
    "lat": 40.723193,
    "details": "Time: 2:00pm Frequency: Weekly Cost: Paid URL: http://www.laughternonconforming.com/",
    "googleTimestamp": "2024-08-17T22:25:23.012Z"
  },
  {
    "id": "323",
    "date": "Sunday",
    "name": "The Drew And Peter Mic",
    "isRecurring": true,
    "location": "Greenwich Village Comedy Club 99 Macdougal Street, New York NY",
    "lng": -74.001912,
    "lat": 40.728682,
    "details": "Time: 3:00pm Frequency: Weekly Cost: Paid URL: https://www.yelp.com/biz/greenwich-village-comedy-club-new-york",
    "googleTimestamp": "2024-08-17T22:25:23.012Z"
  },
  {
    "id": "324",
    "date": "Sunday",
    "name": "F Comedy Club Open Mic",
    "isRecurring": true,
    "location": "West Side Comedy Club 201 West 75th Street, New York NY",
    "lng": -73.980466,
    "lat": 40.780769,
    "details": "Time: 3:00pm Frequency: Weekly Cost: Paid URL: https://www.yelp.com/biz/west-side-comedy-club-new-york",
    "googleTimestamp": "2024-08-17T22:25:23.012Z"
  },
  {
    "id": "325",
    "date": "Sunday",
    "name": "Laughing Buddha Mic",
    "isRecurring": true,
    "location": "Grisly Pear Comedy Club 243 West 54th Street, New York NY",
    "lng": -73.983297,
    "lat": 40.76449,
    "details": "Time: 3:00pm Frequency: Weekly Cost: Paid URL: http://laughingbuddhacomedy.com/mics",
    "googleTimestamp": "2024-08-17T22:25:23.012Z"
  },
  {
    "id": "326",
    "date": "Sunday",
    "name": "4play Mic",
    "isRecurring": true,
    "location": "Producers Club 358 West 44th Street, New York NY",
    "lng": -73.991498,
    "lat": 40.759545,
    "details": "Time: 4:00pm Frequency: Weekly Cost: Paid URL: https://tinyurl.com/producersmic",
    "googleTimestamp": "2024-08-17T22:25:23.012Z"
  },
  {
    "id": "327",
    "date": "Sunday",
    "name": "Laughing Buddha Mic",
    "isRecurring": true,
    "location": "Grisly Pear Comedy Club 243 West 54th Street, New York NY",
    "lng": -73.983297,
    "lat": 40.76449,
    "details": "Time: 4:30pm Frequency: Weekly Cost: Paid URL: http://laughingbuddhacomedy.com/mics",
    "googleTimestamp": "2024-08-17T22:25:23.012Z"
  },
  {
    "id": "328",
    "date": "Sunday",
    "name": "The End Of The Week Mic",
    "isRecurring": true,
    "location": "Producers Club 358 West 44th Street, New York NY",
    "lng": -73.991498,
    "lat": 40.759545,
    "details": "Time: 5:00pm Frequency: Weekly Cost: Paid URL: https://www.yelp.com/biz/producers-club-theaters-and-bar-new-york-2",
    "googleTimestamp": "2024-08-17T22:25:23.012Z"
  },
  {
    "id": "329",
    "date": "Sunday",
    "name": "The Drew And Peter Mic",
    "isRecurring": true,
    "location": "Greenwich Village Comedy Club 99 Macdougal Street, New York NY",
    "lng": -74.001912,
    "lat": 40.728682,
    "details": "Time: 5:00pm Frequency: Weekly Cost: Paid URL: https://www.yelp.com/biz/greenwich-village-comedy-club-new-york",
    "googleTimestamp": "2024-08-17T22:25:23.012Z"
  },
  {
    "id": "33",
    "date": "Tuesday",
    "name": "Comedy Open Mic",
    "isRecurring": true,
    "location": "Canter's Deli 419 N. Fairfax Ave, Los Angeles CA",
    "lng": -118.361683,
    "lat": 34.086382,
    "details": "Time: 6:00pm Frequency: Weekly Cost: Paid URL: https://www.yelp.com/biz/canters-deli-los-angeles-5",
    "googleTimestamp": "2024-08-17T22:25:23.013Z"
  },