[
  {
    "id": "700",
    "isRecurring": true,
    "name": "Not the Apollo Open Mic",
    "location": "1739 Amsterdam Ave, New York, NY",
    "date": "Thursday",
    "lat": 40.821834,
    "lng": -73.950892,
    "details": "Time: 5:30pm\nFrequency: Weekly\nCost: 3 min free or 5 min if you buy an item from the bar (it's happy hour!)\nURL: N/A"
  },
  {
    "id": "701",
    "isRecurring": true,
    "name": "Williamsburg Open Mic",
    "location": "308 Bedford Ave, the Rear, Brooklyn, NY 11249",
    "date": "Monday, Tuesday",
    "lat": 38.9808749,
    "lng": -77.9922457,
    "details": "Time: 6:00pm\nFrequency: Weekly\nCost: $5 (Drink included)\nURL: N/A\nDescription: Where comedy begins"
  },
  {
    "id": "702",
    "isRecurring": true,
    "name": "Comedy Open Mic at Bar XIII",
    "location": "1706 Philadelphia Pike, Wilmington, DE 19809",
    "date": "Wednesday",
    "lat": 39.76912,
    "lng": -75.501671,
    "details": "Time: 8:30pm\nFrequency: Weekly\nCost: Free\nURL: N/A\nDescription: Delaware's longest running comedy open mic"
  },
  {
    "id": "703",
    "isRecurring": true,
    "name": "Wednesday Night Comedy Dynamic",
    "location": "Producers Club, 358 West 44th, New York, NY",
    "date": "Wednesday",
    "lat": 40.759545,
    "lng": -73.991498,
    "details": "Time: 7:00pm - 9:00pm\nFrequency: Weekly\nCost: $5\nURL: @micdupnyc"
  },
  {
    "id": "704",
    "isRecurring": true,
    "name": "Top Mic",
    "location": "Producers Club, 358 West 44th, New York, NY",
    "date": "Thursday",
    "lat": 40.759545,
    "lng": -73.991498,
    "details": "Time: 7:30pm\nFrequency: Weekly\nCost: $5\nURL: @micdupnyc"
  },
  {
    "id": "705",
    "isRecurring": true,
    "name": "Mic Club",
    "location": "Pubkey Bar, 85 Washington Pl, New York, NY",
    "date": "Sunday",
    "lat": 40.7322184,
    "lng": -74.0026048,
    "details": "Time: 6:00pm\nFrequency: Weekly\nCost: No fee\nURL: N/A"
  },
  {
    "id": "706",
    "isRecurring": true,
    "name": "Open Mic Comedy at Harlem Nights",
    "location": "2361 7th Ave, New York, NY",
    "date": "Monday",
    "lat": 40.8172185,
    "lng": -73.9445609,
    "details": "Time: Sign up at 5:30pm\nFrequency: Weekly\nCost: $5 cover\nURL: N/A\nDescription: Purchase one food or drink item to perform"
  },
  {
    "id": "707",
    "isRecurring": true,
    "name": "Uptown Open Mic",
    "location": "Teddy's F&B, 2171 Second Ave, New York, NY",
    "date": "Tuesday",
    "lat": 40.7942394,
    "lng": -73.9426329,
    "details": "Time: 8:00pm (Sign up at 7:30pm)\nFrequency: Weekly\nCost: Purchase food, beer, or liquor to perform\nURL: N/A"
  },
  {
    "id": "708",
    "isRecurring": true,
    "name": "Football Bat Open Mic",
    "location": "Old Man Hustle Brooklyn Comedy Club, 308 Bedford Ave, Brooklyn, NY",
    "date": "Sunday",
    "lat": 40.7138616,
    "lng": -73.964485,
    "details": "Time: 4:00pm\nFrequency: Weekly\nCost: Bring an audience member to pick your spot\nURL: N/A"
  },
  {
    "id": "709",
    "isRecurring": true,
    "name": "New Jokes Times",
    "location": "Down and Out, 503 E 6th Ave, New York, NY",
    "date": "Tuesday",
    "lat": 40.7254542,
    "lng": -73.9860194,
    "details": "Time: 6:30pm\nFrequency: Weekly\nCost: Free\nURL: N/A"
  },
  {
    "id": "710",
    "isRecurring": true,
    "name": "Ugly Pancake Productions Weekly Comedy Open Mic",
    "location": "Whiskey Cellar, 77 E 7th Ave, New York, NY",
    "date": "Tuesday",
    "lat": 40.7274423,
    "lng": -73.9888852,
    "details": "Time: 8:00pm\nFrequency: Weekly\nCost: Free\nURL: N/A"
  },
  {
    "id": "1",
    "isRecurring": true,
    "name": "Open Mic",
    "location": "The Goody Bar and Grill 8712 E SPRAGUE AVE #1000, Spokane Valley WA",
    "date": "Monday",
    "lat": 47.656721,
    "lng": -117.2902616,
    "details": "Every other monday. Hosted by Anthony Singleton, welcoming all talents including musicians, comedians, spoken word, and improv. Contact: 509-557-3999 or visit <a href=\"https://www.lyyv.tv\" target=\"_blank\" style=\"text-decoration: underline; color: blue;\">lyyv.tv</a> for more info. <a href=\"https://www.google.com/maps/place/The+Goody+Bar+And+Grill/@47.6567246,-117.2902616,17z/data=!3m1!4b1!4m6!3m5!1s0x549e21c949eed8cb:0xbd4d1292f17e8c43!8m2!3d47.656721!4d-117.2876867!16s%2Fg%2F1trrcxqj?entry=ttu\" target=\"_blank\" style=\"text-decoration: underline; color: green;\">View on Google Maps</a>."
  },
  {
    "id": "2",
    "isRecurring": true,
    "name": "New Talent Tuesday!",
    "location": "Spokane Comedy Club, Spokane WA",
    "date": "Tuesday",
    "lat": 47.492021,
    "lng": -117.569116,
    "details": "Every Tuesday, Featuring: Amateur and Professional comedians trying out new material. Free admission. Shows starting at 9:30pm or later are 21+, earlier shows are 18+ with valid ID. Visit <a href=\"https://www.spokanecomedyclub.com/\" target=\"_blank\" style=\"text-decoration: underline; color: blue;\">Spokane Comedy Club</a> for more info. <a href=\"https://www.google.com/maps/place/Spokane+Comedy+Club/@47.657017,-117.4193719,17z/data=!3m1!4b1!4m6!3m5!1s0x549e1861e8e0198d:0xba09c4ee88e9b25e!8m2!3d47.657017!4d-117.416797!16s%2Fg%2F11cm6j1zpw?entry=ttu\" target=\"_blank\" style=\"text-decoration: underline; color: green;\">View on Google Maps</a>."
  },
  {
    "id": "3",
    "isRecurring": true,
    "name": "T'S ON A TUESDAY",
    "location": "T's Lounge, Spokane WA",
    "date": "Tuesday",
    "lat": 47.66264,
    "lng": -117.435997,
    "details": "Signup in person at 7:45pm. starts at 8pm usually 9ish on New Talent Nights. What's a comedy scene without a dive bar mic? T's On A Tuesday has been going strong for years and is the perfect place to test out your newest material. There is usually a large caravan of comics who come to T's after New Talent is done, and offers the type of stage where you can really let your hair down. Anything can (and likely will) happen at this mic, and it's never not a good time, but only if you enjoy telling jokes. <a href=\"https://tsspokane.com/\">tsspokane.com</a> <a href=\"https://www.google.com/maps/place/T's+Lounge/@47.6636398,-117.4294504,17z/data=!3m1!4b1!4m6!3m5!1s0x549e185ed5817429:0x475d58f4a48ae52b!8m2!3d47.6636398!4d-117.4268755!16s%2Fg%2F11c5ss4c1c?entry=ttu\" ttarget=\"_blank\" style=\"text-decoration: underline; color: green;\">View on Google Maps</a>"
  },
  {
    "id": "4",
    "isRecurring": true,
    "name": "QUEER COMEDY NIGHT",
    "location": "nYne Bar & Bistro, Spokane WA",
    "date": "Tuesday",
    "lat": 47.6573563,
    "lng": -117.4147831,
    "details": "Signup in person at 7:30pm. starts at 8pm. nYne is one of our local gay bars, so any and all comics who identify as LGBTQIA+ are strongly encouraged to go. This open mic is one of 3 that are on Tuesday nights, so if you're looking to string performances together, don't miss it! Queer allies are also welcome! <a href=\"https://www.nynebar.com/\">nynebar.com</a> <a href=\"https://www.google.com/maps/place/nYne+Bar+%26+Bistro/@47.6573563,-119.1693299,8z/data=!4m10!1m2!2m1!1sn9ne+bistro!3m6!1s0x549e188a0e23298d:0xe96a55dc6ee16314!8m2!3d47.6573563!4d-117.4147831!15sCgtuOW5lIGJpc3Ryb1oNIgtuOW5lIGJpc3Ryb5IBDmdheV9uaWdodF9jbHVimgEkQ2hkRFNVaE5NRzluUzBWSlEwRm5TVU56Y1hOdU0zRlJSUkFC4AEA!16s%2Fg%2F1vzv3cvm?entry=ttu\" ttarget=\"_blank\" style=\"text-decoration: underline; color: green;\">View on Google Maps</a>"
  },
  {
    "id": "5",
    "isRecurring": true,
    "name": "Open Mic Night!",
    "location": "Spokane Comedy Club, Spokane WA",
    "date": "Wednesday",
    "lat": 47.492021,
    "lng": -117.569116,
    "details": "Every Wednesday, A night with professional and first-time comedians. Free admission. Happy hour all night. Sign-up for comedians available at <a href=\"https://www.barkentertainment.com/open-mic\" target=\"_blank\" style=\"text-decoration: underline; color: blue;\">openmicer.com</a>. <a href=\"https://www.google.com/maps/place/Spokane+Comedy+Club/@47.657017,-117.4193719,17z/data=!3m1!4b1!4m6!3m5!1s0x549e1861e8e0198d:0xba09c4ee88e9b25e!8m2!3d47.657017!4d-117.416797!16s%2Fg%2F11cm6j1zpw?entry=ttu\" target=\"_blank\" style=\"text-decoration: underline; color: green;\">View on Google Maps</a>."
  },
  {
    "id": "6",
    "isRecurring": true,
    "name": "Open Mic Night..",
    "location": "Tervan Tavern 411 Cedar St, Sandpoint ID",
    "date": "Wednesday",
    "lat": 48.275897,
    "lng": -116.552568,
    "details": "Open Mic Night. Bring your talent in front of a live audience with a chill vibe. Be it song, instrument, comedy, improv, or magic, come show it off. Hosted by the Tervan Tavern, 411 Cedar St. starting at 6:00(ish) p.m. on Wednesdays. Visit <a href=\"https://tervantavern.com/\" target=\"_blank\" style=\"text-decoration: underline; color: blue;\">Tervan Tavern</a> for more info. <a href=\"https://www.google.com/maps/dir//411+Cedar+St,+Sandpoint,+ID+83864/@48.2759385,-116.6349728,12z/data=!4m8!4m7!1m0!1m5!1m1!1s0x5363d6c8c06638a5:0x9a6ea93138ab0076!2m2!1d-116.5525742!2d48.2759868?entry=ttu\" target=\"_blank\" style=\"text-decoration: underline; color: green;\">View on Google Maps</a>."
  },
  {
    "id": "7",
    "isRecurring": true,
    "name": "Open Mic Stand Up Comedy!",
    "location": "The Draft Zone, Post Falls ID",
    "date": "Thursday",
    "lat": 47.719292,
    "lng": -116.96746,
    "details": "Weekly open mic stand-up comedy event. Every Thursday through 1/24. Free admission. Visit <a href=\"https://draftzonepf.com\" target=\"_blank\" style=\"text-decoration: underline; color: blue;\">Draft Zone </a> for more info. <a href=\"https://www.google.com/maps/place/The+Draft+Zone/@47.7057509,-117.0270137,15z/data=!3m1!4b1!4m6!3m5!1s0x5361ddbc4da8868b:0xc1f752f8c519f0f4!8m2!3d47.7057379!4d-117.0085598!16s%2Fg%2F11gy3bsw8c?entry=ttu\" target=\"_blank\" style=\"text-decoration: underline; color: green;\">View on Google Maps</a>."
  },
  {
    "id": "8",
    "isRecurring": true,
    "name": "Quincy Belt Tournament of Champions!",
    "location": "The Draft Zone, Post Falls ID",
    "date": "Thursday",
    "lat": 47.719292,
    "lng": -116.96746,
    "details": "Post Falls, ID. Entry: Online/In Person. Free entry, no content restrictions. Qualify by winning the \"Quincy Belt\" at the open mic (Thursdays) or via video submission by 12/14. Semifinals: 2/3/24, 3/2/24, 4/6/24, 5/4/24. Finals: 6/1/24. Prizes: 1st - $1000, 2nd - $500, 3rd/4th - $250 each. Email: jaybergcomedy@gmail.com for details and entries. visit <a href=\"https://draftzonepf.com\" target=\"_blank\" style=\"text-decoration: underline; color: blue;\">Draft Zone </a> for more info. <a href=\"https://www.google.com/maps/place/The+Draft+Zone/@47.7057509,-117.0270137,15z/data=!3m1!4b1!4m6!3m5!1s0x5361ddbc4da8868b:0xc1f752f8c519f0f4!8m2!3d47.7057379!4d-117.0085598!16s%2Fg%2F11gy3bsw8c?entry=ttu\" target=\"_blank\" style=\"text-decoration: underline; color: green;\">View on Google Maps</a>."
  },
  {
    "id": "9",
    "isRecurring": true,
    "name": "LITTLE NEVADA COMEDY OPEN MIC",
    "location": "Little Nevada Restaurant and Lounge, Spokane WA",
    "date": "Thursday",
    "lat": 46.644473,
    "lng": -117.190392,
    "details": "Signup in person at 6:00pm starts 6:30pm-ishThe Little Nevada Comedy Open Mic is Spokane's newest open mic! Located in the northern-ish part of Spokane, this spot (and every other one, for that matter) is only as good as you make it, so get to writing! <a href=\"https://www.facebook.com/thelittlenevada/about\"> little nevada Facebook</a> <a href=\"https://www.google.com/maps/place/The+Little+Nevada+Restaurant+%26+Lounge/@47.7015451,-117.3999719,17z/data=!3m1!4b1!4m6!3m5!1s0x549e19133302e643:0x1f7e41b2e502ce4!8m2!3d47.7015452!4d-117.3953585!16s%2Fg%2F11h5rcfc77?entry=ttu\" ttarget=\"_blank\" style=\"text-decoration: underline; color: green;\">View on Google Maps</a>."
  },
  {
    "id": "10",
    "isRecurring": true,
    "name": "3RD THURSDAY COMEDY OPEN MIC",
    "location": "Fox Hole Bar and Grill, Medical Lake WA",
    "date": "Thursday",
    "lat": 47.582831,
    "lng": -117.668619,
    "details": "Signup in person or DM starts at 7:00pm sharp Happens on the 3RD THURSDAY OF THE MONTH. It is an open mic with a 20-min feature act at the end. Comics get the light when they have 1 min remaining. If you're looking to perform at the Fox Hole and DZ, let Chris know so he can put you towards the front of the lineup. Every comic that performs gets an even cut of tips @ the end of the show, so it pays (at least a little bit) to be (at least a little bit) funny. <a href=\"https://www.facebook.com/thefoxholemedicallake/\"> foxholemedicallake Facebook</a> <a href=\"https://www.google.com/maps/place/The+Foxhole+Bar+and+Grill/@47.5725708,-117.6844563,17z/data=!3m1!4b1!4m6!3m5!1s0x549e6b079450a8a7:0x706aa4e325b9b6cd!8m2!3d47.5725708!4d-117.6818814!16s%2Fg%2F11syxzl8hk?entry=ttu\" ttarget=\"_blank\" style=\"text-decoration: underline; color: green;\">View on Google Maps</a>."
  },
  {
    "id": "11",
    "isRecurring": true,
    "name": "Open Mic Night at The Grain Shed",
    "location": "The Grain Shed Taproom, Spokane WA",
    "date": "Friday",
    "lat": 47.66264,
    "lng": -117.435997,
    "details": "Hosted by Anthony Singleton. Open Mic Night for music and comedy. Every Friday from 5:30 PM to 8:30ish PM. All ages welcome. Clean mic. Free admission. <a href=\"https://www.google.com/maps/place/The+Grain+Shed+Taproom/@47.6561077,-117.4348802,17z/data=!3m2!4b1!5s0x549e18680a2601e7:0x1a13f3af47308d34!4m6!3m5!1s0x549e194b26b6f1a1:0x6df1cdc8cd28c935!8m2!3d47.6561041!4d-117.4323053!16s%2Fg%2F11thk6c6yx?entry=ttu\" ttarget=\"_blank\" style=\"text-decoration: underline; color: green;\">View on Google Maps</a>."
  },
  {
    "id": "12",
    "isRecurring": true,
    "name": "FRIDAY FUNNIES",
    "location": "The Garland Drinkery, Spokane WA",
    "date": "Friday",
    "lat": 47.761067,
    "lng": -117.393881,
    "details": "The Garland Drinkery is one of the newer mics in the area, and offers a fun space to perform in Spokane's Historic Garland District. Snag some grub at the Milk Bottle before your set and get those laughs on! This mic happens EVERY OTHER FRIDAY. Be sure to check our calendar so you know which Fridays those are! <a href=\"https://www.facebook.com/drinkerynation/\"> drinkerynation Facebook</a> <a href=\"https://www.google.com/maps/place/Garland+Drinkery/@47.693665,-117.4268169,17z/data=!3m1!4b1!4m6!3m5!1s0x549e191702e19759:0xb7c159246af19ef8!8m2!3d47.693665!4d-117.424242!16s%2Fg%2F1tdwptks?entry=ttu\" ttarget=\"_blank\" style=\"text-decoration: underline; color: green;\">View on Google Maps</a>."
  },
  {
    "id": "13",
    "isRecurring": true,
    "name": "Stand Up Comedy Open Mic",
    "location": "Spikes on 718 E Francis, Spokane WA",
    "date": "Saturday",
    "lat": 47.714804,
    "lng": -117.398302,
    "details": "Hosted by Anthony Singleton. Every Saturday at 7:00 PM. For more information follow @AnthonySingleton on social media. <a href=\"https://www.google.com/maps/place/Spike's+Spokane/@47.7147076,-117.4008385,17z/data=!3m1!4b1!4m6!3m5!1s0x549e1eb3e673dd89:0xb506914f6e09b6e2!8m2!3d47.7147076!4d-117.3982638!16s%2Fg%2F11d2j5c86h?entry=ttu\" ttarget=\"_blank\" style=\"text-decoration: underline; color: green;\">View on Google Maps</a>."
  },
  {
    "id": "14",
    "isRecurring": true,
    "name": "Open Mic Night at Emerge",
    "location": "Emerge downtown, Coeur D'Alene ID",
    "date": "Thursday",
    "lat": 47.691736,
    "lng": -116.654109,
    "details": "Every third Thursday of the month - Singers, Songwriters, Poets, Spoken Word & Monologues welcome. All ages welcome.\n\nWe just ask that you be respectful of others in the space and are ready to experience a wide variety of performances. You may be introduced to a new form of expression you never even knew you would like!\n\nOpen Mic is sponsored by Emerge CDA and North Idaho Pride Alliance.\n\nFREE. RSVP is recommended, but not required. <a href=\"https://emergecda.com/\" target=\"_blank\" style=\"text-decoration: underline; color: blue;\">Visit website</a>. <a href=\"https://www.google.com/maps/place/Emerge/@47.6742323,-116.7842855,15z/data=!4m2!3m1!1s0x0:0xfe97b08bde5da689?sa=X&ved=2ahUKEwjRtISQ86ODAxV0MjQIHcuOBYoQ_BJ6BAgQEAA\" target=\"_blank\" style=\"text-decoration: underline; color: green;\">View on Google Maps</a>."
  },
  {
    "id": "15",
    "isRecurring": true,
    "name": "Good Vibe Monday by Ally Noel",
    "location": "Comedy Blvd 7924 Beverly Blvd, Los Angeles CA",
    "date": "Monday",
    "lat": 34.075952,
    "lng": -118.361926,
    "details": "Time: 5:00pm\nFrequency: Weekly\nCost: Paid\nURL: https://slotted.co/comedyblvdsignup/"
  },
  {
    "id": "16",
    "isRecurring": true,
    "name": "Lucky 7 Mic",
    "location": "Third Wheel Comedy 5176 Santa Monica Blvd, Los Angeles CA",
    "date": "Monday",
    "lat": 34.090659,
    "lng": -118.302603,
    "details": "Time: 6:00pm\nFrequency: Weekly\nCost: Free\nURL: http://thirdwheelcomedy.com/"
  },
  {
    "id": "17",
    "isRecurring": true,
    "name": "Girls And Gays Open Mic",
    "location": "Fourth Wall Cafe 5220 Hollywood Blvd, Los Angeles CA",
    "date": "Monday",
    "lat": 34.1016,
    "lng": -118.303737,
    "details": "Time: 7:00pm\nFrequency: Weekly\nCost: Paid\nURL: https://www.yelp.com/biz/fourth-wall-comedy-cafe-los-angeles"
  },
  {
    "id": "18",
    "isRecurring": true,
    "name": "Open Mic",
    "location": "L.A. School Of Comedy 10835 Santa Monica Blvd, Los Angeles CA",
    "date": "Monday",
    "lat": 34.05024,
    "lng": -118.436122,
    "details": "Time: 7:00pm\nFrequency: Weekly\nCost: Paid\nURL: http://laschoolofcomedy.com/"
  },
  {
    "id": "19",
    "isRecurring": true,
    "name": "Open Mic",
    "location": "Badger And Jam 8265 Sunset Blvd Suite 200, Los Angeles CA",
    "date": "Monday",
    "lat": 34.09727,
    "lng": -118.369208,
    "details": "Time: 7:00pm\nFrequency: Weekly\nCost: Paid\nURL: http://slotted.co/badgerandjam"
  },
  {
    "id": "20",
    "isRecurring": true,
    "name": "Open Mic",
    "location": "Boomtown Brewery 700 Jackson St, Los Angeles CA",
    "date": "Monday",
    "lat": 34.050957,
    "lng": -118.233389,
    "details": "Time: 7:00pm\nFrequency: Weekly\nCost: Free\nURL: https://www.yelp.com/biz/boomtown-brewery-los-angeles"
  },
  {
    "id": "21",
    "isRecurring": true,
    "name": "Dollar Mic",
    "location": "Def Noodles Comedy Club 7426 Sunset Blvd, Los Angeles CA",
    "date": "Monday",
    "lat": 34.097867,
    "lng": -118.351983,
    "details": "Time: 8:00pm\nFrequency: Weekly\nCost: Paid\nURL: https://www.yelp.com/biz/def-noodles-comedy-club-los-angeles"
  },
  {
    "id": "22",
    "isRecurring": true,
    "name": "Open Mic",
    "location": "Tao Comedy Studio 131 S. Western Avenue, Los Angeles CA",
    "date": "Monday",
    "lat": 34.07211,
    "lng": -118.30931,
    "details": "Time: 8:00pm\nFrequency: Weekly\nCost: Paid\nURL: https://www.yelp.com/biz/tao-comedy-studio-los-angeles-2"
  },
  {
    "id": "23",
    "isRecurring": true,
    "name": "Comedy Cookies LA",
    "location": "The Escondite 410 Boyd St, Los Angeles CA",
    "date": "Monday",
    "lat": 34.046505,
    "lng": -118.242773,
    "details": "Time: 8:00pm\nFrequency: Weekly\nCost: Free\nURL: https://www.instagram.com/comedycookies_la/"
  },
  {
    "id": "24",
    "isRecurring": true,
    "name": "Crowd Work Mic",
    "location": "Third Wheel Comedy 5176 Santa Monica Blvd, Los Angeles CA",
    "date": "Monday",
    "lat": 34.090659,
    "lng": -118.302603,
    "details": "Time: 8:00pm\nFrequency: Weekly\nCost: Free\nURL: http://thirdwheelcomedy.com/"
  },
  {
    "id": "25",
    "isRecurring": true,
    "name": "Murder The Mic",
    "location": "The Platform Shop 1056 Main St, Los Angeles CA",
    "date": "Monday",
    "lat": 34.03912,
    "lng": -118.25782,
    "details": "Time: 8:00pm\nFrequency: Weekly\nCost: Paid\nURL: https://theplatformshop.com/"
  },
  {
    "id": "26",
    "isRecurring": true,
    "name": "Comedy Night",
    "location": "Lyric Hyperion 2106 Hyperion Ave, Los Angeles CA",
    "date": "Monday",
    "lat": 34.09901,
    "lng": -118.273682,
    "details": "Time: 9:00pm\nFrequency: Weekly\nCost: Free\nURL: https://www.yelp.com/biz/the-lyric-hyperion-los-angeles-3"
  },
  {
    "id": "27",
    "isRecurring": true,
    "name": "Leg Room",
    "location": "Third Wheel Comedy 5176 Santa Monica Blvd, Los Angeles CA",
    "date": "Monday",
    "lat": 34.090659,
    "lng": -118.302603,
    "details": "Time: 10:00pm\nFrequency: Weekly\nCost: Free\nURL: http://thirdwheelcomedy.com/"
  },
  {
    "id": "28",
    "isRecurring": true,
    "name": "Midnight Madness",
    "location": "Third Wheel Comedy 5176 Santa Monica Blvd, Los Angeles CA",
    "date": "Monday",
    "lat": 34.090659,
    "lng": -118.302603,
    "details": "Time: 11:45pm\nFrequency: Weekly\nCost: Free\nURL: http://thirdwheelcomedy.com/"
  },
  {
    "id": "29",
    "isRecurring": true,
    "name": "Melrose Comedy School",
    "location": "Pauhaus 5235 Melrose Ave, Los Angeles CA",
    "date": "Tuesday",
    "lat": 34.083342,
    "lng": -118.325333,
    "details": "Time: 2:00pm\nFrequency: Weekly\nCost: Paid\nURL: https://pauhausgallery.com/"
  },
  {
    "id": "30",
    "isRecurring": true,
    "name": "Open Mic",
    "location": "Laugh Factory 8001 Sunset Blvd., Los Angeles CA",
    "date": "Tuesday",
    "lat": 34.097859,
    "lng": -118.364464,
    "details": "Time: 4:30pm\nFrequency: Weekly\nCost: Paid\nURL: http://www.laughfactory.com/"
  },
  {
    "id": "31",
    "isRecurring": true,
    "name": "Open Mic",
    "location": "Hollywood Improv 8162 Melrose Avenue, Los Angeles CA",
    "date": "Tuesday",
    "lat": 34.083577,
    "lng": -118.367153,
    "details": "Time: 5:00pm\nFrequency: Weekly\nCost: Free\nURL: https://www.yelp.com/biz/improv-comedy-club-hollywood"
  },
  {
    "id": "32",
    "isRecurring": true,
    "name": "Testing Testing Tuesday Mic",
    "location": "Comedy Blvd 7924 Beverly Blvd, Los Angeles CA",
    "date": "Tuesday",
    "lat": 34.075952,
    "lng": -118.361926,
    "details": "Time: 5:00pm\nFrequency: Weekly\nCost: Paid\nURL: https://www.instagram.com/testingtuesdaymic/"
  },
  {
    "id": "33",
    "isRecurring": true,
    "name": "Comedy Open Mic",
    "location": "Canter's Deli 419 N. Fairfax Ave, Los Angeles CA",
    "date": "Tuesday",
    "lat": 34.086382,
    "lng": -118.361683,
    "details": "Time: 6:00pm\nFrequency: Weekly\nCost: Paid\nURL: https://www.yelp.com/biz/canters-deli-los-angeles-5"
  },
  {
    "id": "34",
    "isRecurring": true,
    "name": "Gimme Space",
    "location": "Third Wheel Comedy 5176 Santa Monica Blvd, Los Angeles CA",
    "date": "Tuesday",
    "lat": 34.090659,
    "lng": -118.302603,
    "details": "Time: 6:00pm\nFrequency: Weekly\nCost: Free\nURL: http://thirdwheelcomedy.com/"
  },
  {
    "id": "35",
    "isRecurring": true,
    "name": "Open Mic",
    "location": "The Mexican Village Restaurant 3668 Beverly Blvd, Los Angeles CA",
    "date": "Tuesday",
    "lat": 34.075974,
    "lng": -118.356753,
    "details": "Time: 6:30pm\nFrequency: Weekly\nCost: Free\nURL: https://www.yelp.com/biz/the-mexican-village-restaurant-los-angeles-2"
  },
  {
    "id": "36",
    "isRecurring": true,
    "name": "Comedy College",
    "location": "Irish Times Bar and Restaurant 3267 Motor Avenue, Los Angeles CA",
    "date": "Tuesday",
    "lat": 34.033498,
    "lng": -118.410925,
    "details": "Time: 7:00pm\nFrequency: Weekly\nCost: Paid\nURL: https://instagram.com/comedian_joshy"
  },
  {
    "id": "37",
    "isRecurring": true,
    "name": "Open Mic",
    "location": "The Roost Cocktails 3100 Los Feliz Blvd, Los Angeles CA",
    "date": "Tuesday",
    "lat": 34.124681,
    "lng": -118.266533,
    "details": "Time: 7:00pm\nFrequency: Weekly\nCost: Free\nURL: https://www.yelp.com/biz/the-roost-los-angeles"
  },
  {
    "id": "38",
    "isRecurring": true,
    "name": "Open Mic",
    "location": "Fourth Wall Cafe 5220 Hollywood Blvd, Los Angeles CA",
    "date": "Tuesday",
    "lat": 34.1016,
    "lng": -118.303737,
    "details": "Time: 7:00pm\nFrequency: Weekly\nCost: Paid\nURL: https://www.yelp.com/biz/fourth-wall-comedy-cafe-los-angeles"
  },
  {
    "id": "39",
    "isRecurring": true,
    "name": "Open Mic",
    "location": "Molly Malone's Irish Pub 575 S Fairfax Ave, Los Angeles CA",
    "date": "Tuesday",
    "lat": 34.06529,
    "lng": -118.36154,
    "details": "Time: 8:00pm\nFrequency: Weekly\nCost: Free\nURL: https://www.yelp.com/biz/molly-malones-los-angeles"
  },
  {
    "id": "40",
    "isRecurring": true,
    "name": "Courtyard Comedy",
    "location": "Prince Of Venice 1091 Broxton Ave, Los Angeles CA",
    "date": "Tuesday",
    "lat": 34.060798,
    "lng": -118.446074,
    "details": "Time: 8:00pm\nFrequency: Weekly\nCost: Free\nURL: https://slotted.co/courtyardcomedy"
  },
  {
    "id": "41",
    "isRecurring": true,
    "name": "Open Mic",
    "location": "Tao Comedy Studio 131 S. Western Avenue, Los Angeles CA",
    "date": "Tuesday",
    "lat": 34.07211,
    "lng": -118.30931,
    "details": "Time: 8:00pm\nFrequency: Weekly\nCost: Paid\nURL: https://www.yelp.com/biz/tao-comedy-studio-los-angeles-2"
  },
  {
    "id": "42",
    "isRecurring": true,
    "name": "Mad About Tarot",
    "location": "Third Wheel Comedy 5176 Santa Monica Blvd, Los Angeles CA",
    "date": "Tuesday",
    "lat": 34.090659,
    "lng": -118.302603,
    "details": "Time: 8:00pm\nFrequency: Weekly\nCost: Free\nURL: http://thirdwheelcomedy.com/"
  },
  {
    "id": "43",
    "isRecurring": true,
    "name": "Open Mic",
    "location": "Accidental Chaos 1041 N Orange Dr, Los Angeles CA",
    "date": "Tuesday",
    "lat": 34.09007,
    "lng": -118.34174,
    "details": "Time: 9:30pm\nFrequency: Weekly\nCost: Free\nURL: https://www.instagram.com/accidentalchaos/"
  },
  {
    "id": "44",
    "isRecurring": true,
    "name": "Demons Dungeon",
    "location": "Third Wheel Comedy 5176 Santa Monica Blvd, Los Angeles CA",
    "date": "Tuesday",
    "lat": 34.090659,
    "lng": -118.302603,
    "details": "Time: 10:00pm\nFrequency: Weekly\nCost: Free\nURL: http://thirdwheelcomedy.com/"
  },
  {
    "id": "45",
    "isRecurring": true,
    "name": "Midnight Madness",
    "location": "Third Wheel Comedy 5176 Santa Monica Blvd, Los Angeles CA",
    "date": "Tuesday",
    "lat": 34.090659,
    "lng": -118.302603,
    "details": "Time: 11:45pm\nFrequency: Weekly\nCost: Free\nURL: http://thirdwheelcomedy.com/"
  },
  {
    "id": "46",
    "isRecurring": true,
    "name": "Melrose Comedy School",
    "location": "Pauhaus 5235 Melrose Ave, Los Angeles CA",
    "date": "Wednesday",
    "lat": 34.083342,
    "lng": -118.325333,
    "details": "Time: 2:00pm\nFrequency: Weekly\nCost: Paid\nURL: https://pauhausgallery.com/"
  },
  {
    "id": "47",
    "isRecurring": true,
    "name": "Open Mic",
    "location": "Hollywood Improv 8162 Melrose Avenue, Los Angeles CA",
    "date": "Wednesday",
    "lat": 34.083577,
    "lng": -118.367153,
    "details": "Time: 6:00pm\nFrequency: Weekly\nCost: Free\nURL: https://www.yelp.com/biz/improv-comedy-club-hollywood"
  },
  {
    "id": "48",
    "isRecurring": true,
    "name": "On The Count",
    "location": "Third Wheel Comedy 5176 Santa Monica Blvd, Los Angeles CA",
    "date": "Wednesday",
    "lat": 34.090659,
    "lng": -118.302603,
    "details": "Time: 6:00pm\nFrequency: Weekly\nCost: Free\nURL: http://thirdwheelcomedy.com/"
  },
  {
    "id": "49",
    "isRecurring": true,
    "name": "The Weird Girl Mic",
    "location": "Third Wheel Hollywood 5176 Santa Monica Blvd Suite 102, Los Angeles CA",
    "date": "Wednesday",
    "lat": 34.090659,
    "lng": -118.302603,
    "details": "Time: 6:00pm\nFrequency: Weekly\nCost: Free\nURL: https://www.yelp.com/biz/third-wheel-comedy-los-angeles"
  },
  {
    "id": "50",
    "isRecurring": true,
    "name": "Open Mic",
    "location": "The Clubhouse 1607 North Vermont Ave, Los Angeles CA",
    "date": "Wednesday",
    "lat": 34.10053,
    "lng": -118.29208,
    "details": "Time: 6:30pm\nFrequency: Weekly\nCost: Free\nURL: http://www.yelp.com/biz/the-clubhouse-los-angeles"
  },
  {
    "id": "51",
    "isRecurring": true,
    "name": "Open Mic",
    "location": "L.A. School Of Comedy 10835 Santa Monica Blvd., Los Angeles CA",
    "date": "Wednesday",
    "lat": 34.05024,
    "lng": -118.436122,
    "details": "Time: 7:00pm\nFrequency: Weekly\nCost: Paid\nURL: http://laschoolofcomedy.com/"
  },
  {
    "id": "52",
    "isRecurring": true,
    "name": "Open Mic",
    "location": "Fourth Wall Cafe 5220 Hollywood Blvd, Los Angeles CA",
    "date": "Wednesday",
    "lat": 34.1016,
    "lng": -118.303737,
    "details": "Time: 7:00pm\nFrequency: Weekly\nCost: Paid\nURL: https://www.yelp.com/biz/fourth-wall-comedy-cafe-los-angeles"
  },
  {
    "id": "53",
    "isRecurring": true,
    "name": "QT Queer Trans Mic",
    "location": "Third Wheel Comedy 5176 Santa Monica Blvd, Los Angeles CA",
    "date": "Wednesday",
    "lat": 34.090659,
    "lng": -118.302603,
    "details": "Time: 8:00pm\nFrequency: Weekly\nCost: Free\nURL: http://thirdwheelcomedy.com/"
  },
  {
    "id": "54",
    "isRecurring": true,
    "name": "Mid-week Mic",
    "location": "Tao Comedy Studio 131 S. Western Avenue, Los Angeles CA",
    "date": "Wednesday",
    "lat": 34.07211,
    "lng": -118.30931,
    "details": "Time: 8:00pm\nFrequency: Weekly\nCost: Paid\nURL: https://www.yelp.com/biz/tao-comedy-studio-los-angeles-2"
  },
  {
    "id": "55",
    "isRecurring": true,
    "name": "Open Mic",
    "location": "Accidental Chaos 1041 N Orange Dr, Los Angeles CA",
    "date": "Wednesday",
    "lat": 34.09007,
    "lng": -118.34174,
    "details": "Time: 9:30pm\nFrequency: Weekly\nCost: Free\nURL: https://www.instagram.com/accidentalchaos/"
  },
  {
    "id": "56",
    "isRecurring": true,
    "name": "The Jump Off Show",
    "location": "Third Wheel Comedy 5176 Santa Monica Blvd, Los Angeles CA",
    "date": "Wednesday",
    "lat": 34.090659,
    "lng": -118.302603,
    "details": "Time: 10:00pm\nFrequency: Weekly\nCost: Free\nURL: http://thirdwheelcomedy.com/"
  },
  {
    "id": "57",
    "isRecurring": true,
    "name": "Midnight Madness",
    "location": "Third Wheel Comedy 5176 Santa Monica Blvd, Los Angeles CA",
    "date": "Wednesday",
    "lat": 34.090659,
    "lng": -118.302603,
    "details": "Time: 11:45pm\nFrequency: Weekly\nCost: Free\nURL: http://thirdwheelcomedy.com/"
  },
  {
    "id": "58",
    "isRecurring": true,
    "name": "The Good Mic",
    "location": "Lyric Hyperion 2106 Hyperion Ave, Los Angeles CA",
    "date": "Thursday",
    "lat": 34.09901,
    "lng": -118.273682,
    "details": "Time: 12:00pm\nFrequency: Weekly\nCost: Free\nURL: https://www.yelp.com/biz/the-lyric-hyperion-los-angeles-3"
  },
  {
    "id": "59",
    "isRecurring": true,
    "name": "Melrose Comedy School",
    "location": "Pauhaus 5235 Melrose Ave, Los Angeles CA",
    "date": "Thursday",
    "lat": 34.083342,
    "lng": -118.325333,
    "details": "Time: 2:00pm\nFrequency: Weekly\nCost: Paid\nURL: https://pauhausgallery.com/"
  },
  {
    "id": "60",
    "isRecurring": true,
    "name": "Open Mic",
    "location": "Fanatic Salon Theater 3815 Sawtelle Blvd, Los Angeles CA",
    "date": "Thursday",
    "lat": 34.010975,
    "lng": -118.419631,
    "details": "Time: 6:00pm\nFrequency: Weekly\nCost: Free\nURL: https://fanaticsalon.com/"
  },
  {
    "id": "61",
    "isRecurring": true,
    "name": "Comedy Corner",
    "location": "Third Wheel Comedy 5176 Santa Monica Blvd, Los Angeles CA",
    "date": "Thursday",
    "lat": 34.090659,
    "lng": -118.302603,
    "details": "Time: 6:00pm\nFrequency: Weekly\nCost: Free\nURL: http://thirdwheelcomedy.com/"
  },
  {
    "id": "62",
    "isRecurring": false,
    "name": "Open Mic",
    "location": "The Living Room 2636 Crenshaw Blvd, Los Angeles CA",
    "date": "Thursday",
    "lat": 34.032317,
    "lng": -118.334951,
    "details": "Time: 7:00pm\nFrequency: Bi-Weekly\nCost: Free\nURL: https://www.instagram.com/living_room_bar_la/"
  },
  {
    "id": "63",
    "isRecurring": true,
    "name": "Open Mic",
    "location": "The Dude's Brewing Company 6615 Hollywood Blvd, Los Angeles CA",
    "date": "Thursday",
    "lat": 34.101726,
    "lng": -118.333646,
    "details": "Time: 7:00pm\nFrequency: Weekly\nCost: Free\nURL: https://www.yelp.com/biz/the-dudes-brewing-company-hollywood-los-angeles"
  },
  {
    "id": "64",
    "isRecurring": true,
    "name": "Open Mic",
    "location": "Fourth Wall Cafe 5220 Hollywood Blvd, Los Angeles CA",
    "date": "Thursday",
    "lat": 34.1016,
    "lng": -118.303737,
    "details": "Time: 7:00pm\nFrequency: Weekly\nCost: Paid\nURL: https://www.yelp.com/biz/fourth-wall-comedy-cafe-los-angeles"
  },
  {
    "id": "65",
    "isRecurring": true,
    "name": "Ego Death",
    "location": "Third Wheel Comedy 5176 Santa Monica Blvd, Los Angeles CA",
    "date": "Thursday",
    "lat": 34.090659,
    "lng": -118.302603,
    "details": "Time: 8:00pm\nFrequency: Weekly\nCost: Free\nURL: http://thirdwheelcomedy.com/"
  },
  {
    "id": "66",
    "isRecurring": true,
    "name": "Open Mic",
    "location": "Accidental Chaos 1041 N Orange Dr, Los Angeles CA",
    "date": "Thursday",
    "lat": 34.09007,
    "lng": -118.34174,
    "details": "Time: 9:30pm\nFrequency: Weekly\nCost: Free\nURL: https://www.instagram.com/accidentalchaos/"
  },
  {
    "id": "67",
    "isRecurring": true,
    "name": "Open Mic",
    "location": "Yalla Hookah 8332 Sepulveda Blvd, Los Angeles CA",
    "date": "Thursday",
    "lat": 33.963037,
    "lng": -118.396017,
    "details": "Time: 10:00pm\nFrequency: Weekly\nCost: Paid\nURL: https://www.yelp.com/biz/yalla-hookah-los-angeles"
  },
  {
    "id": "68",
    "isRecurring": true,
    "name": "Fun Mug",
    "location": "Third Wheel Comedy 5176 Santa Monica Blvd, Los Angeles CA",
    "date": "Thursday",
    "lat": 34.090659,
    "lng": -118.302603,
    "details": "Time: 10:00pm\nFrequency: Weekly\nCost: Free\nURL: http://thirdwheelcomedy.com/"
  },
  {
    "id": "69",
    "isRecurring": true,
    "name": "Midnight Madness",
    "location": "Third Wheel Comedy 5176 Santa Monica Blvd, Los Angeles CA",
    "date": "Thursday",
    "lat": 34.090659,
    "lng": -118.302603,
    "details": "Time: 11:45pm\nFrequency: Weekly\nCost: Free\nURL: http://thirdwheelcomedy.com/"
  },
  {
    "id": "70",
    "isRecurring": true,
    "name": "The High Key Weekend",
    "location": "The Hudson Theatres 6539 Santa Monica Blvd., Los Angeles CA",
    "date": "Friday",
    "lat": 34.090876,
    "lng": -118.332148,
    "details": "Time: 4:00pm\nFrequency: Weekly\nCost: Paid\nURL: https://www.yelp.com/biz/the-hudson-theatres-los-angeles"
  },
  {
    "id": "71",
    "isRecurring": true,
    "name": "Open Mic",
    "location": "The Hollywood Comedy 5871 Melrose Avenue, Los Angeles CA",
    "date": "Friday",
    "lat": 34.083629,
    "lng": -118.328079,
    "details": "Time: 6:00pm\nFrequency: Weekly\nCost: Paid\nURL: https://slotted.co/thehollywoodcomedy/"
  },
  {
    "id": "72",
    "isRecurring": true,
    "name": "Jenga Mic",
    "location": "Third Wheel Comedy 5176 Santa Monica Blvd, Los Angeles CA",
    "date": "Friday",
    "lat": 34.090659,
    "lng": -118.302603,
    "details": "Time: 6:00pm\nFrequency: Weekly\nCost: Free\nURL: http://thirdwheelcomedy.com/"
  },
  {
    "id": "73",
    "isRecurring": true,
    "name": "Open Mic",
    "location": "L.A. School Of Comedy 10835 Santa Monica Blvd, Los Angeles CA",
    "date": "Friday",
    "lat": 34.05024,
    "lng": -118.436122,
    "details": "Time: 7:00pm\nFrequency: Weekly\nCost: Paid\nURL: http://laschoolofcomedy.com/"
  },
  {
    "id": "74",
    "isRecurring": true,
    "name": "Open Mic",
    "location": "Fourth Wall Cafe 5220 Hollywood Blvd, Los Angeles CA",
    "date": "Friday",
    "lat": 34.1016,
    "lng": -118.303737,
    "details": "Time: 7:00pm\nFrequency: Weekly\nCost: Paid\nURL: https://www.yelp.com/biz/fourth-wall-comedy-cafe-los-angeles"
  },
  {
    "id": "75",
    "isRecurring": true,
    "name": "Open Mic",
    "location": "Tao Comedy Studio 131 S. Western Avenue, Los Angeles CA",
    "date": "Friday",
    "lat": 34.07211,
    "lng": -118.30931,
    "details": "Time: 8:00pm\nFrequency: Weekly\nCost: Paid\nURL: https://www.yelp.com/biz/tao-comedy-studio-los-angeles-2"
  },
  {
    "id": "76",
    "isRecurring": true,
    "name": "Premise Run",
    "location": "Third Wheel Comedy 5176 Santa Monica Blvd, Los Angeles CA",
    "date": "Friday",
    "lat": 34.090659,
    "lng": -118.302603,
    "details": "Time: 10:00pm\nFrequency: Weekly\nCost: Free\nURL: http://thirdwheelcomedy.com/"
  },
  {
    "id": "77",
    "isRecurring": true,
    "name": "Das Wassup",
    "location": "Third Wheel Comedy 5176 Santa Monica Blvd, Los Angeles CA",
    "date": "Friday",
    "lat": 34.090659,
    "lng": -118.302603,
    "details": "Time: 11:45pm\nFrequency: Weekly\nCost: Free\nURL: http://thirdwheelcomedy.com/"
  },
  {
    "id": "78",
    "isRecurring": true,
    "name": "Serving Up Comedy",
    "location": "Melody Bar And Grill 9132 S. Sepulveda Blvd., Los Angeles CA",
    "date": "Saturday",
    "lat": 33.95368,
    "lng": -118.39596,
    "details": "Time: 2:00pm\nFrequency: Weekly\nCost: Free\nURL: https://www.yelp.com/biz/melody-bar-and-grill-los-angeles-2"
  },
  {
    "id": "79",
    "isRecurring": true,
    "name": "Bucket Mic",
    "location": "Third Wheel Comedy 5176 Santa Monica Blvd, Los Angeles CA",
    "date": "Saturday",
    "lat": 34.090659,
    "lng": -118.302603,
    "details": "Time: 6:00pm\nFrequency: Weekly\nCost: Free\nURL: http://thirdwheelcomedy.com/"
  },
  {
    "id": "80",
    "isRecurring": true,
    "name": "Open Mic",
    "location": "Fourth Wall Cafe 5220 Hollywood Blvd, Los Angeles CA",
    "date": "Saturday",
    "lat": 34.1016,
    "lng": -118.303737,
    "details": "Time: 7:00pm\nFrequency: Weekly\nCost: Paid\nURL: https://www.yelp.com/biz/fourth-wall-comedy-cafe-los-angeles"
  },
  {
    "id": "81",
    "isRecurring": true,
    "name": "Gator Tales Story Telling",
    "location": "Third Wheel Comedy 5176 Santa Monica Blvd, Los Angeles CA",
    "date": "Saturday",
    "lat": 34.090659,
    "lng": -118.302603,
    "details": "Time: 8:00pm\nFrequency: Weekly\nCost: Free\nURL: http://thirdwheelcomedy.conm/"
  },
  {
    "id": "82",
    "isRecurring": true,
    "name": "Fresh Popcorn",
    "location": "Third Wheel Comedy 5176 Santa Monica Blvd, Los Angeles CA",
    "date": "Saturday",
    "lat": 34.090659,
    "lng": -118.302603,
    "details": "Time: 10:00pm\nFrequency: Weekly\nCost: Free\nURL: http://thirdwheelcomedy.conm/"
  },
  {
    "id": "83",
    "isRecurring": true,
    "name": "Open Mic",
    "location": "Tao Comedy Studio 131 S. Western Avenue, Los Angeles CA",
    "date": "Sunday",
    "lat": 34.07211,
    "lng": -118.30931,
    "details": "Time: 5:00pm\nFrequency: Weekly\nCost: Paid\nURL: https://www.yelp.com/biz/tao-comedy-studio-los-angeles-2"
  },
  {
    "id": "84",
    "isRecurring": true,
    "name": "Open Mic",
    "location": "Fourth Wall Cafe 5220 Hollywood Blvd, Los Angeles CA",
    "date": "Sunday",
    "lat": 34.1016,
    "lng": -118.303737,
    "details": "Time: 7:00pm\nFrequency: Weekly\nCost: Paid\nURL: https://www.yelp.com/biz/fourth-wall-comedy-cafe-los-angeles"
  },
  {
    "id": "85",
    "isRecurring": true,
    "name": "Liberty Laughter Open Mic",
    "location": "The Pack Theater 1078 Lillian Way, Los Angeles CA",
    "date": "Sunday",
    "lat": 34.090358,
    "lng": -118.327579,
    "details": "Time: 10:30pm\nFrequency: Weekly\nCost: Free\nURL: https://www.yelp.com/biz/the-pack-theater-los-angeles"
  },
  {
    "id": "86",
    "isRecurring": true,
    "name": "Midnight Madness",
    "location": "Third Wheel Comedy 5176 Santa Monica Blvd, Los Angeles CA",
    "date": "Sunday",
    "lat": 34.090659,
    "lng": -118.302603,
    "details": "Time: 11:45pm\nFrequency: Weekly\nCost: Free\nURL: http://thirdwheelcomedy.com/"
  },
  {
    "id": "87",
    "isRecurring": true,
    "name": "Open Mic",
    "location": "Lestats Coffee House 3343 Adams Avenue, San Diego CA",
    "date": "Monday",
    "lat": 32.763227,
    "lng": -117.121937,
    "details": "Time: 6:30pm\nFrequency: Weekly\nCost: Free\nURL: https://www.yelp.com/biz/lestats-coffee-house-san-diego"
  },
  {
    "id": "88",
    "isRecurring": true,
    "name": "Open Mic",
    "location": "The Mad House Comedy Club 502 Horton Plaza, San Diego CA",
    "date": "Monday",
    "lat": 32.714129,
    "lng": -117.163763,
    "details": "Time: 8:00pm\nFrequency: Weekly\nCost: Free\nURL: http://www.yelp.com/biz/mad-house-comedy-club-san-diego"
  },
  {
    "id": "89",
    "isRecurring": true,
    "name": "Open Mic",
    "location": "Kensington Club 4079 Adams Ave., San Diego CA",
    "date": "Monday",
    "lat": 32.763122,
    "lng": -117.107632,
    "details": "Time: 9:00pm\nFrequency: Monthly\nCost: Free\nURL: http://www.yelp.com/biz/kensington-club-san-diego"
  },
  {
    "id": "90",
    "isRecurring": true,
    "name": "Open Mic",
    "location": "The American Comedy Co. 818 B 6th Ave., San Diego CA",
    "date": "Tuesday",
    "lat": 32.727737,
    "lng": -117.159555,
    "details": "Time: 8:00pm\nFrequency: Weekly\nCost: Free\nURL: https://www.yelp.com/biz/the-american-comedy-co-san-diego"
  },
  {
    "id": "91",
    "isRecurring": true,
    "name": "Open Mic",
    "location": "The Mad House Comedy Club 502 Horton Plaza, San Diego CA",
    "date": "Tuesday",
    "lat": 32.714129,
    "lng": -117.163763,
    "details": "Time: 8:00pm\nFrequency: Weekly\nCost: Free\nURL: http://www.yelp.com/biz/mad-house-comedy-club-san-diego"
  },
  {
    "id": "92",
    "isRecurring": true,
    "name": "Open Mic",
    "location": "Laugh Factory 432 F St, San Diego CA",
    "date": "Wednesday",
    "lat": 32.713773,
    "lng": -117.160417,
    "details": "Time: 8:00pm\nFrequency: Weekly\nCost: Free\nURL: https://yelp.com/biz/laugh-factory-san-diego-2"
  },
  {
    "id": "93",
    "isRecurring": true,
    "name": "Open Mic",
    "location": "The Mad House Comedy Club 502 Horton Plaza, San Diego CA",
    "date": "Wednesday",
    "lat": 32.714129,
    "lng": -117.163763,
    "details": "Time: 9:45pm\nFrequency: Weekly\nCost: Free\nURL: http://www.yelp.com/biz/mad-house-comedy-club-san-diego"
  },
  {
    "id": "94",
    "isRecurring": false,
    "name": "Open Mic",
    "location": "Queen Bees 3925 Ohio St., San Diego CA",
    "date": "Thursday",
    "lat": 32.748967,
    "lng": -117.128707,
    "details": "Time: 8:00pm\nFrequency: Bi-Weekly\nCost: Paid\nURL: https://www.yelp.com/biz/queen-bees-san-diego"
  },
  {
    "id": "95",
    "isRecurring": true,
    "name": "Open Mic",
    "location": "Bogey's Pub and Grill 9522 Miramar Rd, San Diego CA",
    "date": "Thursday",
    "lat": 32.894443,
    "lng": -117.122763,
    "details": "Time: 8:00pm\nFrequency: Weekly\nCost: Free\nURL: https://www.yelp.com/biz/bogeys-pub-and-grill-san-diego"
  },
  {
    "id": "96",
    "isRecurring": true,
    "name": "Open Mic",
    "location": "The Mad House Comedy Club 502 Horton Plaza, San Diego CA",
    "date": "Thursday",
    "lat": 32.714129,
    "lng": -117.163763,
    "details": "Time: 9:45pm\nFrequency: Weekly\nCost: Free\nURL: http://www.yelp.com/biz/mad-house-comedy-club-san-diego"
  },
  {
    "id": "97",
    "isRecurring": true,
    "name": "Open Mic",
    "location": "The Mad House Comedy Club 502 Horton Plaza, San Diego CA",
    "date": "Friday",
    "lat": 32.714129,
    "lng": -117.163763,
    "details": "Time: 11:45pm\nFrequency: Weekly\nCost: Free\nURL: http://www.yelp.com/biz/mad-house-comedy-club-san-diego"
  },
  {
    "id": "98",
    "isRecurring": true,
    "name": "Open Mic",
    "location": "The Mad House Comedy Club 502 Horton Plaza, San Diego CA",
    "date": "Saturday",
    "lat": 32.714129,
    "lng": -117.163763,
    "details": "Time: 11:45pm\nFrequency: Weekly\nCost: Free\nURL: http://www.yelp.com/biz/mad-house-comedy-club-san-diego"
  },
  {
    "id": "99",
    "isRecurring": true,
    "name": "Open Mic",
    "location": "The Blarney Stone Pub 5617 Balboa Ave., San Diego CA",
    "date": "Sunday",
    "lat": 32.818401,
    "lng": -117.178409,
    "details": "Time: 8:00pm\nFrequency: Weekly\nCost: Free\nURL: https://www.yelp.com/biz/blarney-stone-pub-san-diego-6"
  },
  {
    "id": "100",
    "isRecurring": true,
    "name": "Open Mic",
    "location": "The Mad House Comedy Club 502 Horton Plaza, San Diego CA",
    "date": "Sunday",
    "lat": 32.714129,
    "lng": -117.163763,
    "details": "Time: 9:45pm\nFrequency: Weekly\nCost: Free\nURL: http://www.yelp.com/biz/mad-house-comedy-club-san-diego"
  },
  {
    "id": "101",
    "isRecurring": true,
    "name": "Open Mic",
    "location": "Mutiny Radio 2781 21st Street, San Francisco CA",
    "date": "Monday",
    "lat": 37.757454,
    "lng": -122.4101,
    "details": "Time: 6:00pm\nFrequency: Weekly\nCost: Paid\nURL: https://www.yelp.com/biz/mutiny-radio-san-francisco"
  },
  {
    "id": "102",
    "isRecurring": true,
    "name": "Open Mic",
    "location": "Hotel Utah Saloon 500 Fourth Street, San Francisco CA",
    "date": "Monday",
    "lat": 37.779293,
    "lng": -122.39813,
    "details": "Time: 7:30pm\nFrequency: Weekly\nCost: Free\nURL: https://www.yelp.com/biz/hotel-utah-saloon-san-francisco"
  },
  {
    "id": "103",
    "isRecurring": true,
    "name": "Open Mic",
    "location": "Club OMG 43 6th St., San Francisco CA",
    "date": "Tuesday",
    "lat": 37.78176,
    "lng": -122.40931,
    "details": "Time: 6:30pm\nFrequency: Weekly\nCost: Free\nURL: https://www.yelp.com/biz/omg-san-francisco"
  },
  {
    "id": "104",
    "isRecurring": true,
    "name": "Hysteria Comedy",
    "location": "Martuni's 4 Valencia Street, San Francisco CA",
    "date": "Tuesday",
    "lat": 37.7723,
    "lng": -122.422676,
    "details": "Time: 9:00pm\nFrequency: Weekly\nCost: Free\nURL: https://www.yelp.com/biz/martunis-san-francisco"
  },
  {
    "id": "105",
    "isRecurring": true,
    "name": "Open Mic",
    "location": "La Roccas Corner 957 Columbus Ave, San Francisco CA",
    "date": "Tuesday",
    "lat": 37.803165,
    "lng": -122.414604,
    "details": "Time: 10:00pm\nFrequency: Weekly\nCost: Free\nURL: https://www.yelp.com/biz/la-roccas-corner-san-francisco"
  },
  {
    "id": "106",
    "isRecurring": true,
    "name": "Free Feature Salon",
    "location": "Neck Of The Woods 406 Clement, San Francisco CA",
    "date": "Wednesday",
    "lat": 37.783226,
    "lng": -122.463776,
    "details": "Time: 7:00pm\nFrequency: Weekly\nCost: Free\nURL: https://www.yelp.com/biz/neck-of-the-woods-san-francisco"
  },
  {
    "id": "107",
    "isRecurring": true,
    "name": "Open Mic",
    "location": "Mayes Oyster House 1233 Polk St, San Francisco CA",
    "date": "Wednesday",
    "lat": 37.788273,
    "lng": -122.42053,
    "details": "Time: 7:00pm\nFrequency: Weekly\nCost: Free\nURL: https://www.yelp.com/biz/mayes-oyster-house-san-francisco"
  },
  {
    "id": "108",
    "isRecurring": true,
    "name": "Open Mic",
    "location": "Mutiny Radio 2781 21st Street, San Francisco CA",
    "date": "Friday",
    "lat": 37.757454,
    "lng": -122.4101,
    "details": "Time: 6:00pm\nFrequency: Weekly\nCost: Paid\nURL: https://www.yelp.com/biz/mutiny-radio-san-francisco"
  },
  {
    "id": "109",
    "isRecurring": true,
    "name": "Miraloma Mic",
    "location": "Miraloma Club 749 Portola Dr, San Francisco CA",
    "date": "Sunday",
    "lat": 37.74384,
    "lng": -122.45358,
    "details": "Time: 8:00pm\nFrequency: Weekly\nCost: Free\nURL: https://www.yelp.com/biz/miraloma-club-san-francisco"
  },
  {
    "id": "110",
    "isRecurring": true,
    "name": "The Church Of Comedy",
    "location": "Club OMG 43 6th St., San Francisco CA",
    "date": "Sunday",
    "lat": 37.78176,
    "lng": -122.40931,
    "details": "Time: 8:00pm\nFrequency: Weekly\nCost: Free\nURL: https://www.yelp.com/biz/omg-san-francisco"
  },
  {
    "id": "111",
    "isRecurring": true,
    "name": "Open Mic",
    "location": "Shake A Leg Miami 2620 S Bayshore Dr, Miami FL",
    "date": "Tuesday",
    "lat": 25.740249,
    "lng": -80.220543,
    "details": "Time: 6:00pm\nFrequency: Weekly\nCost: Free\nURL: https://www.yelp.com/biz/shake-a-leg-miami-coconut-grove"
  },
  {
    "id": "112",
    "isRecurring": true,
    "name": "Open Mic",
    "location": "Villain Theater 5865 NE 2nd Ave, Miami FL",
    "date": "Tuesday",
    "lat": 25.8296,
    "lng": -80.191835,
    "details": "Time: 8:00pm\nFrequency: Weekly\nCost: Free\nURL: https://www.yelp.com/biz/villain-theater-miami-2"
  },
  {
    "id": "113",
    "isRecurring": true,
    "name": "Comedy Night",
    "location": "Sweet Caroline Karaoke Bar 1111 SW 1st Ave #107, Miami FL",
    "date": "Tuesday",
    "lat": 25.7633274,
    "lng": -80.1971736,
    "details": "Time: 9:00pm\nFrequency: Weekly\nCost: Free\nURL: https://www.yelp.com/biz/sweet-caroline-karaoke-bar-miami"
  },
  {
    "id": "114",
    "isRecurring": true,
    "name": "Open Mic",
    "location": "Union Beer Store 1547 SW. 8th St., Miami FL",
    "date": "Wednesday",
    "lat": 25.765778,
    "lng": -80.220476,
    "details": "Time: 7:30pm\nFrequency: Weekly\nCost: Free\nURL: https://www.yelp.com/biz/union-beer-store-miami"
  },
  {
    "id": "115",
    "isRecurring": false,
    "name": "Free Comedy Show",
    "location": "Eddie\u2019s Place 12606 SW 8 St, Miami FL",
    "date": "Wednesday",
    "lat": 25.760451,
    "lng": -80.399918,
    "details": "Time: 9:00pm\nFrequency: Bi-Weekly\nCost: Free\nURL: https://www.yelp.com/biz/eddies-place-miami"
  },
  {
    "id": "116",
    "isRecurring": true,
    "name": "Open Mic",
    "location": "Sand Bar + Kitchen 6752 Collins Ave, Miami FL",
    "date": "Wednesday",
    "lat": 25.851671,
    "lng": -80.12053,
    "details": "Time: 9:00pm\nFrequency: Weekly\nCost: Free\nURL: https://www.yelp.com/biz/sand-bar-kitchen-miami-beach"
  },
  {
    "id": "117",
    "isRecurring": true,
    "name": "Open Mic",
    "location": "Artistic Vibes Miami 12986 SW 89 Ave, Miami FL",
    "date": "Thursday",
    "lat": 25.689823,
    "lng": -80.337478,
    "details": "Time: 8:00pm\nFrequency: Weekly\nCost: Free\nURL: https://www.yelp.com/biz/artistic-vibes-miami-2"
  },
  {
    "id": "118",
    "isRecurring": true,
    "name": "Open Mic",
    "location": "Taurus 3540 Main Hwy C103, Miami FL",
    "date": "Thursday",
    "lat": 25.670998,
    "lng": -80.362225,
    "details": "Time: 10:00pm\nFrequency: Weekly\nCost: Free\nURL: https://www.yelp.com/biz/taurus-miami-3"
  },
  {
    "id": "119",
    "isRecurring": true,
    "name": "Open Mic",
    "location": "Speakfridays 404 NW 26th St, Miami FL",
    "date": "Friday",
    "lat": 25.801257,
    "lng": -80.202365,
    "details": "Time: 8:00pm\nFrequency: Weekly\nCost: Free\nURL: https://www.yelp.com/biz/speakfridays-miami"
  },
  {
    "id": "120",
    "isRecurring": true,
    "name": "Free Comedy Show",
    "location": "Smokes Up Miami 15652 SW 72nd St, Miami FL",
    "date": "Sunday",
    "lat": 25.702519,
    "lng": -80.332559,
    "details": "Time: 8:00pm\nFrequency: Monthly\nCost: Free\nURL: https://www.yelp.com/biz/smokes-up-miami-miami"
  },
  {
    "id": "121",
    "isRecurring": true,
    "name": "Slack Key",
    "location": "HB Social Club 1680 Kapiolani Blvd, Honolulu HI",
    "date": "Tuesday",
    "lat": 21.291637,
    "lng": -157.838364,
    "details": "Time: 7:30pm\nFrequency: Weekly\nCost: Paid\nURL: https://www.yelp.com/biz/hawaiian-brians-honolulu-4"
  },
  {
    "id": "122",
    "isRecurring": true,
    "name": "Comedy U",
    "location": "Anna O'Brien's 2440 South Beretania St., Honolulu HI",
    "date": "Wednesday",
    "lat": 21.294218,
    "lng": -157.823976,
    "details": "Time: 8:00pm\nFrequency: Weekly\nCost: Paid\nURL: https://www.comedyuhi.com/"
  },
  {
    "id": "123",
    "isRecurring": true,
    "name": "Open Mic",
    "location": "Will B's Saloon 12505 W Chinden, Boise ID",
    "date": "Tuesday",
    "lat": 43.662089,
    "lng": -116.337745,
    "details": "Time: 7:30pm\nFrequency: Weekly\nCost: Free\nURL: https://www.yelp.com/biz/willi-bs-saloon-boise"
  },
  {
    "id": "124",
    "isRecurring": true,
    "name": "Comedy Open Mic",
    "location": "Liquid Lounge 405 S. 8th Street, Boise ID",
    "date": "Wednesday",
    "lat": 43.613175,
    "lng": -116.206212,
    "details": "Time: 7:30pm\nFrequency: Weekly\nCost: Free\nURL: https://www.yelp.com/biz/liquid-lounge-boise"
  },
  {
    "id": "125",
    "isRecurring": true,
    "name": "Brew Ha Ha Comedy Open Mic",
    "location": "Mad Swede Brew Hall 816 W Bannock St, Boise ID",
    "date": "Thursday",
    "lat": 43.617579,
    "lng": -116.202505,
    "details": "Time: 7:30pm\nFrequency: Weekly\nCost: Free\nURL: https://www.yelp.com/biz/mad-swede-brew-hall-boise-3"
  },
  {
    "id": "126",
    "isRecurring": true,
    "name": "Open Mic",
    "location": "Lizard Tail Brewery 3417 Central Ave NE Suite C, Albuquerque NM",
    "date": "Monday",
    "lat": 35.080329,
    "lng": -106.606271,
    "details": "Time: 5:30pm\nFrequency: Weekly\nCost: Free\nURL: https://www.yelp.com/biz/lizard-tail-brewing-albuquerque-2"
  },
  {
    "id": "127",
    "isRecurring": false,
    "name": "Open Mic Rescue",
    "location": "Juno Brewery 1501 1st Street, Albuquerque NM",
    "date": "Tuesday",
    "lat": 35.09796,
    "lng": -106.645708,
    "details": "Time: 7:00pm\nFrequency: Bi-Weekly\nCost: Free\nURL: https://www.yelp.com/biz/juno-albuquerque-2"
  },
  {
    "id": "128",
    "isRecurring": true,
    "name": "Up In Smoke Open Mic!",
    "location": "The Hall ABQ 107 Jefferson St. NE, Albuquerque NM",
    "date": "Thursday",
    "lat": 35.07901,
    "lng": -106.593515,
    "details": "Time: 8:30pm\nFrequency: Weekly\nCost: Free\nURL: https://www.instagram.com/thehallabq/?hl=en"
  },
  {
    "id": "129",
    "isRecurring": true,
    "name": "Open Mic",
    "location": "Dragons Place 7200 W Fond Du Lac Ave, Milwaukee WI",
    "date": "Monday",
    "lat": 43.109948,
    "lng": -88.001089,
    "details": "Time: 10:00pm\nFrequency: Weekly\nCost: Free\nURL: https://m.yelp.com/biz/dragons-place-milwaukee"
  },
  {
    "id": "130",
    "isRecurring": true,
    "name": "Open Mic",
    "location": "Miramar Theatre 2844 North Oakland Avenue, Milwaukee WI",
    "date": "Tuesday",
    "lat": 43.070449,
    "lng": -87.887552,
    "details": "Time: 8:00pm\nFrequency: Weekly\nCost: Free\nURL: https://www.yelp.com/biz/miramar-theatre-milwaukee"
  },
  {
    "id": "131",
    "isRecurring": true,
    "name": "The Duck And Cover Comedy Hour",
    "location": "Frank's Power Plant 2800 S. Kinnickinnic Ave, Milwaukee WI",
    "date": "Tuesday",
    "lat": 42.994254,
    "lng": -87.893,
    "details": "Time: 8:45pm\nFrequency: Weekly\nCost: Free\nURL: https://www.yelp.com/biz/franks-power-plant-milwaukee"
  },
  {
    "id": "132",
    "isRecurring": true,
    "name": "World's Funniest Free Comedy Show!",
    "location": "Rounding Third 6317 W. Bluemound Rd., Milwaukee WI",
    "date": "Thursday",
    "lat": 43.035923,
    "lng": -87.991642,
    "details": "Time: 8:00pm\nFrequency: Weekly\nCost: Free\nURL: https://www.yelp.com/biz/rounding-third-milwaukee"
  },
  {
    "id": "133",
    "isRecurring": true,
    "name": "Open Mic",
    "location": "Public Bar Live 1214 18th St NW, Washington DC",
    "date": "Tuesday",
    "lat": 38.906286,
    "lng": -77.04206,
    "details": "Time: 9:00pm\nFrequency: Weekly\nCost: Paid\nURL: https://www.yelp.com/biz/public-bar-live-washington"
  },
  {
    "id": "134",
    "isRecurring": true,
    "name": "Adams Bomb",
    "location": "Dirty Water 816 H St NE, Washington DC",
    "date": "Wednesday",
    "lat": 38.900455,
    "lng": -76.994196,
    "details": "Time: 9:00pm\nFrequency: Weekly\nCost: Free\nURL: https://www.yelp.com/biz/dirty-water-washington"
  },
  {
    "id": "135",
    "isRecurring": true,
    "name": "Underground Comedy Night",
    "location": "Bier Baron Tavern 1523 22nd St NW, Washington DC",
    "date": "Thursday",
    "lat": 38.910303,
    "lng": -77.04848,
    "details": "Time: 8:00pm\nFrequency: Weekly\nCost: Free\nURL: https://www.yelp.com/biz/the-bier-baron-tavern-and-comedy-loft-washington"
  },
  {
    "id": "136",
    "isRecurring": true,
    "name": "Open Mic",
    "location": "Potters House 1658 Columbia Road Nw, Washington DC",
    "date": "Friday",
    "lat": 38.924953,
    "lng": -77.038749,
    "details": "Time: 7:30pm\nFrequency: Weekly\nCost: Free\nURL: https://www.yelp.com/biz/potters-house-washington"
  },
  {
    "id": "137",
    "isRecurring": true,
    "name": "Martin Amini and Friends",
    "location": "Heaven and Hell 2327 18th St NW, Washington DC",
    "date": "Friday",
    "lat": 38.920437,
    "lng": -77.041601,
    "details": "Time: 8:30pm\nFrequency: Weekly\nCost: Free\nURL: https://www.yelp.com/biz/club-heaven-and-hell-washington-3"
  },
  {
    "id": "138",
    "isRecurring": true,
    "name": "Underground Comedy",
    "location": "Wonderland Ballroom 1101 Kenyon St NW, Washington DC",
    "date": "Sunday",
    "lat": 38.929921,
    "lng": -77.027988,
    "details": "Time: 7:00pm\nFrequency: Weekly\nCost: Free\nURL: https://www.yelp.com/biz/the-wonderland-ballroom-washington"
  },
  {
    "id": "139",
    "isRecurring": true,
    "name": "Pretty Sure It's An Open Mic",
    "location": "Hawn 'n Dove 329 Pennsylvania Ave SE, Washington DC",
    "date": "Sunday",
    "lat": 38.886406,
    "lng": -77.001153,
    "details": "Time: 7:00pm\nFrequency: Weekly\nCost: Free\nURL: https://www.yelp.com/biz/hawk-n-dove-washington"
  },
  {
    "id": "140",
    "isRecurring": false,
    "name": "Laugh Jurassoff",
    "location": "The Red Door Lounge 3875 Grand Avenue, Billings MT",
    "date": "Thursday",
    "lat": 45.784473,
    "lng": -108.613907,
    "details": "Time: 8:00pm\nFrequency: Bi-Weekly\nCost: Free\nURL: https://www.yelp.com/biz/the-red-door-lounge-billings"
  },
  {
    "id": "141",
    "isRecurring": true,
    "name": "Comedy in the Corner",
    "location": "The Break Room 1011 W College St, Bozeman MT",
    "date": "Monday",
    "lat": 45.67166,
    "lng": -111.051508,
    "details": "Time: 7:00pm\nFrequency: Weekly\nCost: Free\nURL: https://www.yelp.com/biz/the-break-room-no-title"
  },
  {
    "id": "142",
    "isRecurring": true,
    "name": "Bone Dry Comedy Hour",
    "location": "Last Best Comedy 321 E Main St, Bozeman MT",
    "date": "Tuesday",
    "lat": 45.6796,
    "lng": -111.032388,
    "details": "Time: 8:00pm\nFrequency: Weekly\nCost: Free\nURL: https://www.yelp.com/biz/last-best-comedy-bozeman"
  },
  {
    "id": "143",
    "isRecurring": true,
    "name": "Happy Hour Open Mic",
    "location": "Last Best Comedy 321 E Main St, Bozeman MT",
    "date": "Friday",
    "lat": 45.6796,
    "lng": -111.032388,
    "details": "Time: 5:30pm\nFrequency: Weekly\nCost: Free\nURL: https://www.yelp.com/biz/last-best-comedy-bozeman"
  },
  {
    "id": "144",
    "isRecurring": true,
    "name": "Open Mic",
    "location": "The Vinyl Lounge 1414 3rd Ave S, Nashville TN",
    "date": "Monday",
    "lat": 36.141433,
    "lng": -86.762831,
    "details": "Time: 7:00pm\nFrequency: Weekly\nCost: Free\nURL: https://www.yelp.com/biz/the-vinyl-lounge-nashville"
  },
  {
    "id": "145",
    "isRecurring": true,
    "name": "Flying Toaster Video",
    "location": "Hubba Hubba Tiki Tonk 922 Main St, Nashville TN",
    "date": "Monday",
    "lat": 36.172611,
    "lng": -86.765566,
    "details": "Time: 7:00pm\nFrequency: Weekly\nCost: Free\nURL: https://www.yelp.com/biz/hubba-hubba-tiki-tonk-nashville"
  },
  {
    "id": "146",
    "isRecurring": true,
    "name": "Open Mic Mondays",
    "location": "Garage Sale Vintage 747 Douglas Ave #101, Nashville TN",
    "date": "Monday",
    "lat": 36.1939931,
    "lng": -86.7566011,
    "details": "Time: 7:30pm\nFrequency: Weekly\nCost: Free\nURL: https://www.yelp.com/biz/garage-sale-vintage-nashville-nashville"
  },
  {
    "id": "147",
    "isRecurring": true,
    "name": "Roast The Host",
    "location": "Third Coast Comedy Club 1310 Clinton Street 37203, Nashville TN",
    "date": "Monday",
    "lat": 36.164518,
    "lng": -86.796501,
    "details": "Time: 10:00pm\nFrequency: Weekly\nCost: Free\nURL: https://www.yelp.com/biz/third-coast-comedy-club-nashville"
  },
  {
    "id": "148",
    "isRecurring": true,
    "name": "Open Mic",
    "location": "The East Room 2412 Gallatin Ave., Nashville TN",
    "date": "Tuesday",
    "lat": 36.194531,
    "lng": -86.74311,
    "details": "Time: 8:30pm\nFrequency: Weekly\nCost: Free\nURL: https://www.yelp.com/biz/the-east-room-nashville"
  },
  {
    "id": "149",
    "isRecurring": true,
    "name": "Open Mic",
    "location": "Bobby's Idle Hour Tavern 9 Music Square S, Nashville TN",
    "date": "Tuesday",
    "lat": 36.146757,
    "lng": -86.794128,
    "details": "Time: 10:00pm\nFrequency: Weekly\nCost: Free\nURL: https://www.yelp.com/biz/bobbys-idle-hour-tavern-nashville"
  },
  {
    "id": "150",
    "isRecurring": true,
    "name": "Open Mic",
    "location": "The Bowery Vault 2905C Gallatin Pike 2nd Level Suite C, Nashville TN",
    "date": "Wednesday",
    "lat": 36.185664,
    "lng": -86.785429,
    "details": "Time: 5:00pm\nFrequency: Weekly\nCost: Free\nURL: https://www.yelp.com/biz/the-bowery-vault-nashville"
  },
  {
    "id": "151",
    "isRecurring": true,
    "name": "Open Mic",
    "location": "Pressure Smoke and Dab Bar 2190 Nolensville Pk B, Nashville TN",
    "date": "Wednesday",
    "lat": 36.129615,
    "lng": -86.754603,
    "details": "Time: 7:00pm\nFrequency: Weekly\nCost: Free\nURL: https://www.yelp.com/biz/pressure-smoke-and-vape-shop-nashville-2"
  },
  {
    "id": "152",
    "isRecurring": true,
    "name": "Open Mic",
    "location": "G-Spot 2203 Buchanan St, Nashville TN",
    "date": "Wednesday",
    "lat": 36.179992,
    "lng": -86.813495,
    "details": "Time: 8:00pm\nFrequency: Weekly\nCost: Free\nURL: https://www.yelp.com/biz/g-spot-nashville-2"
  },
  {
    "id": "153",
    "isRecurring": true,
    "name": "Open Mic",
    "location": "Official Wings 2035 Jefferson St, Nashville TN",
    "date": "Wednesday",
    "lat": 36.168541,
    "lng": -86.811846,
    "details": "Time: 8:00pm\nFrequency: Weekly\nCost: Free\nURL: https://www.yelp.com/biz/official-wings-nashville"
  },
  {
    "id": "154",
    "isRecurring": true,
    "name": "Open Mic",
    "location": "The Groove 1103 Calvin Ave, Nashville TN",
    "date": "Thursday",
    "lat": 36.181826,
    "lng": -86.748699,
    "details": "Time: 6:00pm\nFrequency: Weekly\nCost: Free\nURL: https://www.yelp.com/biz/the-groove-nashville"
  },
  {
    "id": "155",
    "isRecurring": true,
    "name": "Open Mic",
    "location": "Love and Exile 715 Main St A, Nashville TN",
    "date": "Thursday",
    "lat": 36.175175,
    "lng": -86.75986,
    "details": "Time: 7:00pm\nFrequency: Weekly\nCost: Free\nURL: https://www.yelp.com/biz/love-and-exile-nashville"
  },
  {
    "id": "156",
    "isRecurring": true,
    "name": "Open Mic",
    "location": "Fran's East Side 2504 Dickerson Pike, Nashville TN",
    "date": "Thursday",
    "lat": 36.21106,
    "lng": -86.76588,
    "details": "Time: 7:00pm\nFrequency: Weekly\nCost: Free\nURL: https://www.yelp.com/biz/frans-east-side-nashville"
  },
  {
    "id": "157",
    "isRecurring": true,
    "name": "Open Mic",
    "location": "JuicePow 2703 Gallatin Pike, Nashville TN",
    "date": "Thursday",
    "lat": 36.199314,
    "lng": -86.741174,
    "details": "Time: 9:00pm\nFrequency: Weekly\nCost: Free\nURL: https://www.yelp.com/biz/juicepow-nashville"
  },
  {
    "id": "158",
    "isRecurring": true,
    "name": "Open Mic",
    "location": "Grandpa Bar 1501 Herman St #123, Nashville TN",
    "date": "Friday",
    "lat": 36.1660208,
    "lng": -86.8012608,
    "details": "Time: 6:00pm\nFrequency: Weekly\nCost: Free\nURL: https://www.yelp.com/biz/grandpa-bar-nashville-2"
  },
  {
    "id": "159",
    "isRecurring": true,
    "name": "Open Mic",
    "location": "The Holistic Connection 4401 Harding Pike, Nashville TN",
    "date": "Friday",
    "lat": 36.125476,
    "lng": -86.846506,
    "details": "Time: 10:00pm\nFrequency: Weekly\nCost: Free\nURL: https://www.yelp.com/biz/the-holistic-connection-belle-meade-nashville-3"
  },
  {
    "id": "160",
    "isRecurring": true,
    "name": "Open Mic",
    "location": "The Cobra 2511 Gallatin Ave, Nashville TN",
    "date": "Sunday",
    "lat": 36.195552,
    "lng": -86.743187,
    "details": "Time: 7:00pm\nFrequency: Weekly\nCost: Free\nURL: https://www.yelp.com/biz/the-cobra-nashville"
  },
  {
    "id": "161",
    "isRecurring": true,
    "name": "Open Mic",
    "location": "The Green Light Bar 833 Hawkins St, Nashville TN",
    "date": "Sunday",
    "lat": 36.147211,
    "lng": -86.780476,
    "details": "Time: 8:00pm\nFrequency: Weekly\nCost: Free\nURL: https://www.yelp.com/biz/the-green-light-nashville"
  },
  {
    "id": "162",
    "isRecurring": true,
    "name": "Open Mic",
    "location": "The Lincoln Lodge 2040 N Milwaukee Ave, Chicago IL",
    "date": "Monday",
    "lat": 41.918255,
    "lng": -87.69025,
    "details": "Time: 7:00pm\nFrequency: Weekly\nCost: Free\nURL: https://www.yelp.com/biz/lincoln-lodge-chicago"
  },
  {
    "id": "163",
    "isRecurring": true,
    "name": "Open Mic",
    "location": "Wrigleyville North 3900 N Sheridan Rd, Chicago IL",
    "date": "Monday",
    "lat": 41.952944,
    "lng": -87.654819,
    "details": "Time: 7:00pm\nFrequency: Weekly\nCost: Free\nURL: https://www.yelp.com/biz/wrigleyville-north-chicago"
  },
  {
    "id": "164",
    "isRecurring": true,
    "name": "Open Mic",
    "location": "Subterranean 2011 W North Ave, Chicago IL",
    "date": "Monday",
    "lat": 41.910325,
    "lng": -87.678006,
    "details": "Time: 7:00pm\nFrequency: Weekly\nCost: Free\nURL: https://www.yelp.com/biz/subterranean-chicago"
  },
  {
    "id": "165",
    "isRecurring": true,
    "name": "Open Mic",
    "location": "Maria's Packaged Goods 960 W 31st St, Chicago IL",
    "date": "Monday",
    "lat": 41.838001,
    "lng": -87.660431,
    "details": "Time: 7:00pm\nFrequency: Weekly\nCost: Free\nURL: https://www.yelp.com/biz/marias-packaged-goods-and-community-bar-chicago"
  },
  {
    "id": "166",
    "isRecurring": true,
    "name": "Open Mic",
    "location": "Uptown Taproom 1265 W Wilson Ave, Chicago IL",
    "date": "Monday",
    "lat": 41.965188,
    "lng": -87.661574,
    "details": "Time: 7:30pm\nFrequency: Weekly\nCost: Free\nURL: https://www.yelp.com/biz/uptown-taproom-chicago"
  },
  {
    "id": "167",
    "isRecurring": true,
    "name": "Open Mic",
    "location": "Darrin's Cocktail Lounge 1249 E 87th St, Chicago IL",
    "date": "Monday",
    "lat": 41.737217,
    "lng": -87.574896,
    "details": "Time: 8:00pm\nFrequency: Weekly\nCost: Free\nURL: https://www.yelp.com/biz/darrins-cocktail-lounge-chicago"
  },
  {
    "id": "168",
    "isRecurring": true,
    "name": "Open Mic",
    "location": "Nicks Beer Garden 1516 N Milwaukee Ave, Chicago IL",
    "date": "Monday",
    "lat": 41.908902,
    "lng": -87.675695,
    "details": "Time: 8:00pm\nFrequency: Weekly\nCost: Free\nURL: https://www.yelp.com/biz/nicks-beer-garden-chicago-2"
  },
  {
    "id": "169",
    "isRecurring": true,
    "name": "Open Mic",
    "location": "Logan Theatre 2646 N. Milwaukee, Chicago IL",
    "date": "Monday",
    "lat": 41.929674,
    "lng": -87.708844,
    "details": "Time: 8:30pm\nFrequency: Weekly\nCost: Free\nURL: https://www.yelp.com/biz/logan-theatre-chicago"
  },
  {
    "id": "170",
    "isRecurring": true,
    "name": "Open Mic",
    "location": "Shakers on Clark 3162 N Clark St, Chicago IL",
    "date": "Monday",
    "lat": 41.939348,
    "lng": -87.650395,
    "details": "Time: 8:30pm\nFrequency: Weekly\nCost: Free\nURL: https://www.yelp.com/biz/shakers-on-clark-chicago"
  },
  {
    "id": "171",
    "isRecurring": true,
    "name": "Open Mic",
    "location": "The Comedy Bar 162 E Superior St., Chicago IL",
    "date": "Monday",
    "lat": 41.89601,
    "lng": -87.623035,
    "details": "Time: 9:00pm\nFrequency: Weekly\nCost: Free\nURL: https://www.yelp.com/biz/the-comedy-bar-chicago-4"
  },
  {
    "id": "172",
    "isRecurring": true,
    "name": "Open Mic",
    "location": "Output Lounge & Sports Bar 3720 N Clark St, Chicago IL",
    "date": "Monday",
    "lat": 41.9496229,
    "lng": -87.6612676,
    "details": "Time: 9:45pm\nFrequency: Weekly\nCost: Free\nURL: https://www.yelp.com/biz/output-wrigleyville-chicago"
  },
  {
    "id": "173",
    "isRecurring": true,
    "name": "Open Mic",
    "location": "My Buddy's 4416 N Clark St, Chicago IL",
    "date": "Monday",
    "lat": 41.962235,
    "lng": -87.666571,
    "details": "Time: 10:00pm\nFrequency: Weekly\nCost: Free\nURL: https://www.yelp.com/biz/my-buddys-chicago"
  },
  {
    "id": "174",
    "isRecurring": true,
    "name": "Open Mic",
    "location": "Surge Billiards 3716 W Fullerton Ave, Chicago IL",
    "date": "Tuesday",
    "lat": 41.92488,
    "lng": -87.720247,
    "details": "Time: 6:00pm\nFrequency: Weekly\nCost: Free\nURL: https://www.yelp.com/biz/surge-billiards-chicago-2"
  },
  {
    "id": "175",
    "isRecurring": true,
    "name": "Open Mic",
    "location": "Frances Cocktail Lounge 307 E 75th St, Chicago IL",
    "date": "Tuesday",
    "lat": 41.758559,
    "lng": -87.592394,
    "details": "Time: 7:00pm\nFrequency: Weekly\nCost: Free\nURL: https://francescocktaillounge.com/"
  },
  {
    "id": "176",
    "isRecurring": false,
    "name": "Open Mic",
    "location": "Glenwood 6962 N Glenwood Ave, Chicago IL",
    "date": "Tuesday",
    "lat": 42.008454,
    "lng": -87.666341,
    "details": "Time: 7:30pm\nFrequency: Bi-Weekly\nCost: Free\nURL: https://www.yelp.com/biz/the-glenwood-chicago"
  },
  {
    "id": "177",
    "isRecurring": true,
    "name": "Open Mic",
    "location": "Pizzeria Serio 1708 W Belmont Ave, Chicago IL",
    "date": "Tuesday",
    "lat": 41.939924,
    "lng": -87.671492,
    "details": "Time: 7:30pm\nFrequency: Weekly\nCost: Free\nURL: https://www.yelp.com/biz/pizzeria-serio-chicago"
  },
  {
    "id": "178",
    "isRecurring": true,
    "name": "Open Mic",
    "location": "Harrigan's 2816 N Halsted St, Chicago IL",
    "date": "Tuesday",
    "lat": 41.933286,
    "lng": -87.649291,
    "details": "Time: 8:00pm\nFrequency: Weekly\nCost: Free\nURL: https://www.yelp.com/biz/harrigans-chicago"
  },
  {
    "id": "179",
    "isRecurring": true,
    "name": "Open Mic",
    "location": "Redline VR 4702 N Ravenswood Ave, Chicago IL",
    "date": "Tuesday",
    "lat": 41.967033,
    "lng": -87.674811,
    "details": "Time: 8:00pm\nFrequency: Weekly\nCost: Free\nURL: https://www.yelp.com/biz/redline-vr-chicago"
  },
  {
    "id": "180",
    "isRecurring": true,
    "name": "Open Mic",
    "location": "Emerald Isle 6686 N Northwest Hwy, Chicago IL",
    "date": "Tuesday",
    "lat": 42.002383,
    "lng": -87.815874,
    "details": "Time: 8:00pm\nFrequency: Weekly\nCost: Free\nURL: https://www.yelp.com/biz/emerald-isle-chicago"
  },
  {
    "id": "181",
    "isRecurring": true,
    "name": "Open Mic",
    "location": "Carbon Arc Bar 4620 N Lincoln Ave, Chicago IL",
    "date": "Tuesday",
    "lat": 41.965446,
    "lng": -87.68669,
    "details": "Time: 8:00pm\nFrequency: Weekly\nCost: Free\nURL: https://carbonarcbar.com/"
  },
  {
    "id": "182",
    "isRecurring": true,
    "name": "Open Mic",
    "location": "O'Donnell's 4500 N Elston Ave, Chicago IL",
    "date": "Tuesday",
    "lat": 41.96239,
    "lng": -87.732328,
    "details": "Time: 8:00pm\nFrequency: Weekly\nCost: Free\nURL: https://www.yelp.com/biz/o-donnells-chicago"
  },
  {
    "id": "183",
    "isRecurring": true,
    "name": "Open Mic",
    "location": "Laugh Factory 3175 N Broadway St, Chicago IL",
    "date": "Tuesday",
    "lat": 41.939802,
    "lng": -87.644216,
    "details": "Time: 9:00pm\nFrequency: Weekly\nCost: Free\nURL: http://www.laughfactory.com/"
  },
  {
    "id": "184",
    "isRecurring": true,
    "name": "Open Mic",
    "location": "Lotties Pub 1925 West Cortland Street, Chicago IL",
    "date": "Tuesday",
    "lat": 41.91571,
    "lng": -87.676203,
    "details": "Time: 9:00pm\nFrequency: Weekly\nCost: Free\nURL: https://www.yelp.com/biz/lotties-pub-chicago-3"
  },
  {
    "id": "185",
    "isRecurring": true,
    "name": "Open Mic",
    "location": "Annoyance Theatre & Bar 851 W Belmont Ave, Chicago IL",
    "date": "Tuesday",
    "lat": 30.509877,
    "lng": -88.173001,
    "details": "Time: 9:30pm\nFrequency: Weekly\nCost: Free\nURL: https://www.yelp.com/biz/the-annoyance-theatre-and-bar-chicago-2"
  },
  {
    "id": "186",
    "isRecurring": true,
    "name": "Open Mic",
    "location": "The Lincoln Lodge 2040 N Milwaukee Ave, Chicago IL",
    "date": "Wednesday",
    "lat": 41.918255,
    "lng": -87.69025,
    "details": "Time: 6:00pm\nFrequency: Weekly\nCost: Free\nURL: https://www.yelp.com/biz/lincoln-lodge-chicago"
  },
  {
    "id": "187",
    "isRecurring": true,
    "name": "Open Mic",
    "location": "Emerald City Coffee 3938 North Sheridan Road, Chicago IL",
    "date": "Wednesday",
    "lat": 41.953987,
    "lng": -87.65468,
    "details": "Time: 7:00pm\nFrequency: Weekly\nCost: Free\nURL: https://www.yelp.com/biz/emerald-city-coffee-chicago"
  },
  {
    "id": "188",
    "isRecurring": true,
    "name": "Open Mic",
    "location": "Red Room Comedy Club 7442 N Western Ave, Chicago IL",
    "date": "Wednesday",
    "lat": 42.017162,
    "lng": -87.690574,
    "details": "Time: 8:00pm\nFrequency: Weekly\nCost: Free\nURL: https://www.redroomcomedyclub.com/"
  },
  {
    "id": "189",
    "isRecurring": true,
    "name": "Open Mic",
    "location": "The Rabbit Hole Wrigley 3474 N Clark St, Chicago IL",
    "date": "Wednesday",
    "lat": 41.947414,
    "lng": -87.65684,
    "details": "Time: 8:00pm\nFrequency: Weekly\nCost: Free\nURL: https://rabbitholewrigley.com/"
  },
  {
    "id": "190",
    "isRecurring": true,
    "name": "Open Mic",
    "location": "Cole's Bar 2338 N Milwaukee Ave, Chicago IL",
    "date": "Wednesday",
    "lat": 41.923525,
    "lng": -87.698975,
    "details": "Time: 9:00pm\nFrequency: Weekly\nCost: Free\nURL: https://www.yelp.com/biz/coles-bar-chicago-2"
  },
  {
    "id": "191",
    "isRecurring": true,
    "name": "Open Mic",
    "location": "Easy Bar 1944 W Division St, Chicago IL",
    "date": "Wednesday",
    "lat": 41.90351,
    "lng": -87.676646,
    "details": "Time: 10:30pm\nFrequency: Weekly\nCost: Free\nURL: https://www.yelp.com/biz/easy-bar-chicago"
  },
  {
    "id": "192",
    "isRecurring": true,
    "name": "Open Mic",
    "location": "Claddagh Ring Pub 2306 W Foster Ave, Chicago IL",
    "date": "Wednesday",
    "lat": 41.976188,
    "lng": -87.687132,
    "details": "Time: 10:30pm\nFrequency: Weekly\nCost: Free\nURL: https://www.yelp.com/biz/the-claddagh-ring-pub-chicago"
  },
  {
    "id": "193",
    "isRecurring": true,
    "name": "Open Mic",
    "location": "Logan Vegan 2535 N. Kedzie Blvd., Chicago IL",
    "date": "Thursday",
    "lat": 41.9277,
    "lng": -87.706531,
    "details": "Time: 6:00pm\nFrequency: Weekly\nCost: Free\nURL: https://www.instagram.com/p/c2qsc9krejg/"
  },
  {
    "id": "194",
    "isRecurring": true,
    "name": "Open Mic",
    "location": "Redline VR 4702 N Ravenswood Ave, Chicago IL",
    "date": "Thursday",
    "lat": 41.967033,
    "lng": -87.674811,
    "details": "Time: 8:00pm\nFrequency: Weekly\nCost: Free\nURL: https://www.yelp.com/biz/redline-vr-chicago"
  },
  {
    "id": "195",
    "isRecurring": true,
    "name": "Open Mic",
    "location": "ETA Creative Arts Foundation 7558 S South Chicago Ave, Chicago IL",
    "date": "Thursday",
    "lat": 41.757017,
    "lng": -87.593989,
    "details": "Time: 8:00pm\nFrequency: Weekly\nCost: Free\nURL: https://www.yelp.com/biz/eta-creative-arts-foundation-chicago"
  },
  {
    "id": "196",
    "isRecurring": true,
    "name": "Open Mic",
    "location": "Schubas Tavern 3159 N Southport Ave, Chicago IL",
    "date": "Thursday",
    "lat": 41.939656,
    "lng": -87.663457,
    "details": "Time: 8:00pm\nFrequency: Weekly\nCost: Free\nURL: https://www.yelp.com/biz/schubas-tavern-chicago-3"
  },
  {
    "id": "197",
    "isRecurring": true,
    "name": "Open Mic",
    "location": "Nola Bar & Kitchen 3481-83 N Clark St, Chicago IL",
    "date": "Thursday",
    "lat": 34.910749,
    "lng": -93.679045,
    "details": "Time: 8:00pm\nFrequency: Weekly\nCost: Free\nURL: https://www.yelp.com/biz/nola-bar-and-kitchen-chicago"
  },
  {
    "id": "198",
    "isRecurring": true,
    "name": "Open Mic",
    "location": "Dreamers Yolo 5419 N Lincoln Ave, Chicago IL",
    "date": "Thursday",
    "lat": 41.980116,
    "lng": -87.692453,
    "details": "Time: 8:00pm\nFrequency: Weekly\nCost: Free\nURL: https://www.yelp.com/biz/dreamers-yolo-chicago"
  },
  {
    "id": "199",
    "isRecurring": true,
    "name": "Open Mic",
    "location": "Rec Room 4138 N Sheridan Rd, Chicago IL",
    "date": "Thursday",
    "lat": 41.957728,
    "lng": -87.655143,
    "details": "Time: 8:00pm\nFrequency: Weekly\nCost: Free\nURL: https://www.recroomchicago.org/"
  },
  {
    "id": "200",
    "isRecurring": true,
    "name": "Open Mic",
    "location": "The Comedy Bar 162 E Superior St., Chicago IL",
    "date": "Thursday",
    "lat": 41.89601,
    "lng": -87.623035,
    "details": "Time: 9:00pm\nFrequency: Weekly\nCost: Free\nURL: https://www.yelp.com/biz/the-comedy-bar-chicago-4"
  },
  {
    "id": "201",
    "isRecurring": true,
    "name": "Open Mic",
    "location": "One City Tap 3115 S Archer Ave, Chicago IL",
    "date": "Thursday",
    "lat": 41.817681,
    "lng": -87.698049,
    "details": "Time: 9:00pm\nFrequency: Weekly\nCost: Free\nURL: https://www.yelp.com/biz/one-city-tap-chicago-2"
  },
  {
    "id": "202",
    "isRecurring": true,
    "name": "Open Mic",
    "location": "The Thirsty Tavern 5368 N Milwaukee Ave, Chicago IL",
    "date": "Thursday",
    "lat": 41.978284,
    "lng": -87.770598,
    "details": "Time: 9:00pm\nFrequency: Weekly\nCost: Free\nURL: https://www.yelp.com/biz/the-thirsty-tavern-chicago"
  },
  {
    "id": "203",
    "isRecurring": true,
    "name": "Open Mic",
    "location": "Holiday Club 4000 N Sheridan Rd, Chicago IL",
    "date": "Thursday",
    "lat": 41.954651,
    "lng": -87.654859,
    "details": "Time: 9:30pm\nFrequency: Weekly\nCost: Free\nURL: https://www.yelp.com/biz/holiday-club-chicago"
  },
  {
    "id": "204",
    "isRecurring": true,
    "name": "Open Mic",
    "location": "My Buddy's 4416 N Clark St, Chicago IL",
    "date": "Thursday",
    "lat": 41.962235,
    "lng": -87.666571,
    "details": "Time: 10:00pm\nFrequency: Weekly\nCost: Free\nURL: https://www.yelp.com/biz/my-buddys-chicago"
  },
  {
    "id": "205",
    "isRecurring": true,
    "name": "Open Mic",
    "location": "The Pony Inn 1638 W Belmont Ave, Chicago IL",
    "date": "Thursday",
    "lat": 41.939942,
    "lng": -87.670188,
    "details": "Time: 10:30pm\nFrequency: Weekly\nCost: Free\nURL: https://www.yelp.com/biz/the-pony-inn-chicago-2"
  },
  {
    "id": "206",
    "isRecurring": true,
    "name": "Open Mic",
    "location": "FDR Post VFW 1824 W Cortland St, Chicago IL",
    "date": "Friday",
    "lat": 41.916278,
    "lng": -87.673779,
    "details": "Time: 8:00pm\nFrequency: Weekly\nCost: Free\nURL: https://www.yelp.com/biz/american-legion-franklin-delano-roosevelt-post-no-923-chicago"
  },
  {
    "id": "207",
    "isRecurring": true,
    "name": "Open Mic",
    "location": "The Lincoln Lodge 2040 N Milwaukee Ave, Chicago IL",
    "date": "Friday",
    "lat": 41.918255,
    "lng": -87.69025,
    "details": "Time: 11:00pm\nFrequency: Weekly\nCost: Free\nURL: https://www.yelp.com/biz/lincoln-lodge-chicago"
  },
  {
    "id": "208",
    "isRecurring": true,
    "name": "Open Mic",
    "location": "Annoyance Theatre & Bar 851 W Belmont Ave, Chicago IL",
    "date": "Friday",
    "lat": 30.509877,
    "lng": -88.173001,
    "details": "Time: 11:00pm\nFrequency: Weekly\nCost: Free\nURL: https://www.yelp.com/biz/the-annoyance-theatre-and-bar-chicago-2"
  },
  {
    "id": "209",
    "isRecurring": true,
    "name": "Open Mic",
    "location": "Output Lounge & Sports Bar 3720 N Clark St, Chicago IL",
    "date": "Saturday",
    "lat": 41.9496229,
    "lng": -87.6612676,

    "details": "Time: 8:00pm\nFrequency: Weekly\nCost: Free\nURL: https://www.yelp.com/biz/output-wrigleyville-chicago"
  },
  {
    "id": "210",
    "isRecurring": true,
    "name": "Open Mic",
    "location": "Reggies Chicago 2105 S State St, Chicago IL",
    "date": "Saturday",
    "lat": 41.853978,
    "lng": -87.626763,
    "details": "Time: 11:59pm\nFrequency: Weekly\nCost: Free\nURL: https://www.yelp.com/biz/reggies-music-joint-chicago"
  },
  {
    "id": "211",
    "isRecurring": true,
    "name": "Open Mic",
    "location": "aliveOne 2683 N Halsted St, Chicago IL",
    "date": "Sunday",
    "lat": 41.931465,
    "lng": -87.648587,
    "details": "Time: 5:30pm\nFrequency: Weekly\nCost: Free\nURL: https://www.yelp.com/biz/aliveone-chicago"
  },
  {
    "id": "212",
    "isRecurring": true,
    "name": "Open Mic",
    "location": "Surge Billiards 3716 W Fullerton Ave, Chicago IL",
    "date": "Sunday",
    "lat": 41.92488,
    "lng": -87.720247,
    "details": "Time: 6:00pm\nFrequency: Weekly\nCost: Free\nURL: https://www.yelp.com/biz/surge-billiards-chicago-2"
  },
  {
    "id": "213",
    "isRecurring": true,
    "name": "Open Mic",
    "location": "The iO Theater 1501 N Kingsbury St, Chicago IL",
    "date": "Sunday",
    "lat": 41.908602,
    "lng": -87.651781,
    "details": "Time: 7:00pm\nFrequency: Weekly\nCost: Free\nURL: https://ioimprov.com/"
  },
  {
    "id": "214",
    "isRecurring": false,
    "name": "Open Mic",
    "location": "The Box 1411 1411 West 111th Street, Chicago IL",
    "date": "Sunday",
    "lat": 41.691918,
    "lng": -87.657512,
    "details": "Time: 7:00pm\nFrequency: Bi-Weekly\nCost: Paid\nURL: https://allevents.in/org/the-box-1411/19060055"
  },
  {
    "id": "215",
    "isRecurring": true,
    "name": "Open Mic",
    "location": "Will's Northwoods Inn 3030 N Racine Ave, Chicago IL",
    "date": "Sunday",
    "lat": 41.937267,
    "lng": -87.659247,
    "details": "Time: 8:00pm\nFrequency: Weekly\nCost: Free\nURL: https://www.yelp.com/biz/wills-northwoods-inn-chicago?start=240"
  },
  {
    "id": "216",
    "isRecurring": true,
    "name": "Open Mic",
    "location": "My Buddy's 4416 N Clark St, Chicago IL",
    "date": "Sunday",
    "lat": 41.962235,
    "lng": -87.666571,
    "details": "Time: 9:00pm\nFrequency: Weekly\nCost: Free\nURL: https://www.yelp.com/biz/my-buddys-chicago"
  },
  {
    "id": "217",
    "isRecurring": true,
    "name": "Comedy Open Mic",
    "location": "Draft Bar 8221 W Irving Park Road, Chicago IL",
    "date": "Sunday",
    "lat": 41.951842,
    "lng": -87.832672,
    "details": "Time: 9:00pm\nFrequency: Weekly\nCost: Free\nURL: http://draftbarchicago.com/"
  },
  {
    "id": "218",
    "isRecurring": true,
    "name": "Open Mic",
    "location": "Reed's Local 3017 W Belmont Ave, Chicago IL",
    "date": "Sunday",
    "lat": 41.939108,
    "lng": -87.703441,
    "details": "Time: 10:00pm\nFrequency: Weekly\nCost: Free\nURL: https://www.yelp.com/biz/reeds-local-chicago-2"
  },
  {
    "id": "219",
    "isRecurring": true,
    "name": "Open Mic",
    "location": "Rants And Raves Brewery 308 N. Jackson, Moscow ID",
    "date": "Wednesday",
    "lat": 46.735005,
    "lng": -117.002633,
    "details": "Time: 7:00pm\nFrequency: Weekly\nCost: Free\nURL: https://www.yelp.com/biz/rants-and-raves-brewery-moscow"
  },
  {
    "id": "220",
    "isRecurring": true,
    "name": "Comedy Open Mic Night",
    "location": "Crescent Brewery 1521 Front St, Nampa ID",
    "date": "Tuesday",
    "lat": 43.576636,
    "lng": -116.555119,
    "details": "Time: 8:00pm\nFrequency: Weekly\nCost: Free\nURL: https://www.yelp.com/biz/crescent-brewery-nampa-2"
  },
  {
    "id": "221",
    "isRecurring": true,
    "name": "Open Mic",
    "location": "Portneuf Valley Brewing 615 South 1st Avenue, Pocatello ID",
    "date": "Tuesday",
    "lat": 42.859831,
    "lng": -112.443284,
    "details": "Time: 8:00pm\nFrequency: Weekly\nCost: Free\nURL: https://www.yelp.com/biz/portneuf-valley-brewing-pocatello"
  },
  {
    "id": "222",
    "isRecurring": true,
    "name": "Open Mic",
    "location": "Carousel Lounge 3206 Spenard Rd, Anchorage AK",
    "date": "Wednesday",
    "lat": 61.190993,
    "lng": -149.907338,
    "details": "Time: 8:00pm\nFrequency: Weekly\nCost: Free\nURL: https://www.yelp.com/biz/carousel-cocktail-lounge-anchorage-2"
  },
  {
    "id": "223",
    "isRecurring": true,
    "name": "Comedy Open Mic",
    "location": "Chilkoot Charlie's 2435 Spenard Road, Anchorage AK",
    "date": "Sunday",
    "lat": 61.198237,
    "lng": -149.904966,
    "details": "Time: 8:30pm\nFrequency: Weekly\nCost: Free\nURL: https://www.yelp.com/biz/koots-anchorage-2"
  },
  {
    "id": "224",
    "isRecurring": true,
    "name": "Open Mic",
    "location": "Green Dragon 11 Marshall Street, Boston MA",
    "date": "Monday",
    "lat": 42.361479,
    "lng": -71.05684,
    "details": "Time: 9:00pm\nFrequency: Weekly\nCost: Free\nURL: https://www.yelp.com/biz/the-green-dragon-tavern-boston-2"
  },
  {
    "id": "225",
    "isRecurring": true,
    "name": "Comedy Open Mic",
    "location": "The Bebop 1116 Boylston Street, Boston MA",
    "date": "Tuesday",
    "lat": 42.346799,
    "lng": -71.088711,
    "details": "Time: 7:00pm\nFrequency: Weekly\nCost: Free\nURL: https://www.yelp.com/biz/the-bebop-boston"
  },
  {
    "id": "226",
    "isRecurring": true,
    "name": "The Local Connection: Open Mic",
    "location": "Lorettas Last Call 1 Landsdowne Street, Boston MA",
    "date": "Saturday",
    "lat": 42.3473359,
    "lng": -71.0970457,
    "details": "Time: 12:00pm\nFrequency: Monthly\nCost: Free\nURL: http://www.nextgenerationconcerts.com/"
  },
  {
    "id": "227",
    "isRecurring": true,
    "name": "Sunday Funday Open Mic",
    "location": "Jacques' Cabaret 79 Broadway St, Boston MA",
    "date": "Sunday",
    "lat": 42.349987,
    "lng": -71.067451,
    "details": "Time: 6:00pm\nFrequency: Weekly\nCost: Free\nURL: https://www.yelp.com/biz/jacques-cabaret-boston"
  },
  {
    "id": "228",
    "isRecurring": true,
    "name": "Open Mic",
    "location": "GrandTen Distilling 383 Dorchester Ave, Boston MA",
    "date": "Sunday",
    "lat": 42.335082,
    "lng": -71.057205,
    "details": "Time: 7:00pm\nFrequency: Weekly\nCost: Free\nURL: http://www.grandten.com/"
  },
  {
    "id": "229",
    "isRecurring": true,
    "name": "Open Mic",
    "location": "The PIT 154 W 29th St, New York NY",
    "date": "Monday",
    "lat": 40.747465,
    "lng": -73.992226,
    "details": "Time: 4:30pm\nFrequency: Weekly\nCost: Paid\nURL: https://www.yelp.com/biz/the-pit-loft-new-york"
  },
  {
    "id": "230",
    "isRecurring": true,
    "name": "Open Mic",
    "location": "West Side Comedy Club 201 West 75th Street, New York NY",
    "date": "Monday",
    "lat": 40.780769,
    "lng": -73.980466,
    "details": "Time: 4:30pm\nFrequency: Weekly\nCost: Paid\nURL: https://www.yelp.com/biz/west-side-comedy-club-new-york"
  },
  {
    "id": "231",
    "isRecurring": true,
    "name": "Laughing Buddha Mic",
    "location": "The Stand NYC 116 E. 16th St., New York NY",
    "date": "Monday",
    "lat": 40.735421,
    "lng": -73.988348,
    "details": "Time: 5:00pm\nFrequency: Weekly\nCost: Paid\nURL: http://laughingbuddhacomedy.com/mics"
  },
  {
    "id": "232",
    "isRecurring": true,
    "name": "Laughing Buddha Mic",
    "location": "Grisly Pear Comedy Club 243 West 54th Street, New York NY",
    "date": "Monday",
    "lat": 40.76449,
    "lng": -73.983297,
    "details": "Time: 5:00pm\nFrequency: Weekly\nCost: Paid\nURL: http://laughingbuddhacomedy.com/mics"
  },
  {
    "id": "233",
    "isRecurring": true,
    "name": "Mondays with Messitte",
    "location": "Broadway Comedy Club 318 West 53rd Street, New York NY",
    "date": "Monday",
    "lat": 40.764451,
    "lng": -73.985669,
    "details": "Time: 5:00pm\nFrequency: Weekly\nCost: Paid\nURL: https://www.yelp.com/biz/broadway-comedy-club-new-york"
  },
  {
    "id": "234",
    "isRecurring": true,
    "name": "Monday Midday Mic",
    "location": "Producers Club 358 West 44th Street, New York NY",
    "date": "Monday",
    "lat": 40.759545,
    "lng": -73.991498,
    "details": "Time: 5:00pm\nFrequency: Weekly\nCost: Paid\nURL: https://www.yelp.com/biz/producers-club-theaters-and-bar-new-york-2"
  },
  {
    "id": "235",
    "isRecurring": true,
    "name": "Bite Me Open Mic",
    "location": "Iggy's 1452 2nd Ave., New York NY",
    "date": "Monday",
    "lat": 40.77115,
    "lng": -73.956434,
    "details": "Time: 5:30pm\nFrequency: Weekly\nCost: Paid\nURL: https://www.yelp.com/biz/iggys-new-york"
  },
  {
    "id": "236",
    "isRecurring": true,
    "name": "Tighten Up Mic",
    "location": "Home Sweet Home 131 Chrystie St, New York NY",
    "date": "Monday",
    "lat": 40.719457,
    "lng": -73.993362,
    "details": "Time: 6:00pm\nFrequency: Weekly\nCost: Free\nURL: https://www.yelp.com/biz/home-sweet-home-new-york"
  },
  {
    "id": "237",
    "isRecurring": true,
    "name": "Barrio Boogie Open Mic",
    "location": "Comedy In Harlem 508 East 117th St 2nd Fl, New York NY",
    "date": "Monday",
    "lat": 40.795431,
    "lng": -73.932209,
    "details": "Time: 6:00pm\nFrequency: Weekly\nCost: Paid\nURL: http://comedyinharlem.com/"
  },
  {
    "id": "238",
    "isRecurring": true,
    "name": "Practice, Practice, Practice",
    "location": "Central Park Cafe 910 7th Ave, New York NY",
    "date": "Monday",
    "lat": 40.76596,
    "lng": -73.97994,
    "details": "Time: 6:00pm\nFrequency: Weekly\nCost: Paid\nURL: https://www.yelp.com/biz/central-park-cafe-new-york-3"
  },
  {
    "id": "239",
    "isRecurring": true,
    "name": "Femmes And Friends",
    "location": "Populares 51 Avenue B, New York NY",
    "date": "Monday",
    "lat": 40.723082,
    "lng": -73.982526,
    "details": "Time: 6:30pm\nFrequency: Weekly\nCost: Paid\nURL: https://www.instagram.com/femmesandfriendsmic/"
  },
  {
    "id": "240",
    "isRecurring": true,
    "name": "About That Life Comedy Open Mic",
    "location": "Tara Rose 384 3rd Avenue, New York NY",
    "date": "Monday",
    "lat": 40.741762,
    "lng": -73.981233,
    "details": "Time: 7:00pm\nFrequency: Weekly\nCost: Paid\nURL: https://www.instagram.com/aboutthatlifecomedy/"
  },
  {
    "id": "241",
    "isRecurring": true,
    "name": "Comedians On The Loose",
    "location": "Black Cat LES 172 Rivington Street, New York NY",
    "date": "Monday",
    "lat": 40.719014,
    "lng": -73.984576,
    "details": "Time: 7:30pm\nFrequency: Weekly\nCost: Paid\nURL: https://www.comediansontheloose.com/open-mics"
  },
  {
    "id": "242",
    "isRecurring": true,
    "name": "Monday Night Open Mic",
    "location": "Nuyorican Poets Cafe 236 East 3rd Street, New York NY",
    "date": "Monday",
    "lat": 40.722054,
    "lng": -73.981742,
    "details": "Time: 9:00pm\nFrequency: Weekly\nCost: Paid\nURL: https://www.yelp.com/biz/nuyorican-poets-cafe-new-york"
  },
  {
    "id": "243",
    "isRecurring": true,
    "name": "Porn Mic",
    "location": "Producers Club 358 West 44 St, New York NY",
    "date": "Tuesday",
    "lat": 40.759545,
    "lng": -73.991498,
    "details": "Time: 4:45pm\nFrequency: Weekly\nCost: Paid\nURL: https://www.yelp.com/biz/producers-club-theaters-and-bar-new-york-2"
  },
  {
    "id": "244",
    "isRecurring": true,
    "name": "Steve Aron\u2019s Open Mic",
    "location": "Greenwich Village Comedy Club 99 Macdougal Street, New York NY",
    "date": "Tuesday",
    "lat": 40.728682,
    "lng": -74.001912,
    "details": "Time: 5:15pm\nFrequency: Weekly\nCost: Paid\nURL: https://www.yelp.com/biz/greenwich-village-comedy-club-new-york"
  },
  {
    "id": "245",
    "isRecurring": true,
    "name": "Open Mic",
    "location": "St. Marks Comedy Club 12 St. Marks Place, New York NY",
    "date": "Tuesday",
    "lat": 40.729123,
    "lng": -73.989224,
    "details": "Time: 5:30pm\nFrequency: Weekly\nCost: Paid\nURL: https://www.yelp.com/biz/st-marks-comedy-club-new-york"
  },
  {
    "id": "246",
    "isRecurring": true,
    "name": "Laughing Buddha Mic",
    "location": "Grisly Pear Comedy Club 243 West 54th Street, New York NY",
    "date": "Tuesday",
    "lat": 40.76449,
    "lng": -73.983297,
    "details": "Time: 5:45pm\nFrequency: Weekly\nCost: Paid\nURL: http://laughingbuddhacomedy.com/mics"
  },
  {
    "id": "247",
    "isRecurring": true,
    "name": "Mic Technicians",
    "location": "Producers Club 358 West 44th Street, New York NY",
    "date": "Tuesday",
    "lat": 40.759545,
    "lng": -73.991498,
    "details": "Time: 6:00pm\nFrequency: Weekly\nCost: Paid\nURL: https://www.yelp.com/biz/producers-club-theaters-and-bar-new-york-2"
  },
  {
    "id": "248",
    "isRecurring": true,
    "name": "Tickle Me Tuesdays",
    "location": "Coexist Gamehouse 325 W 38th Street, New York NY",
    "date": "Tuesday",
    "lat": 40.755312,
    "lng": -73.992792,
    "details": "Time: 6:00pm\nFrequency: Weekly\nCost: Paid\nURL: https://www.coexistgaming.com/"
  },
  {
    "id": "249",
    "isRecurring": true,
    "name": "Open Mic",
    "location": "Comic Strip Live 1568 2nd Ave, New York NY",
    "date": "Tuesday",
    "lat": 40.774867,
    "lng": -73.953708,
    "details": "Time: 6:00pm\nFrequency: Weekly\nCost: Paid\nURL: https://www.yelp.com/biz/comic-strip-live-new-york-4"
  },
  {
    "id": "250",
    "isRecurring": true,
    "name": "Turn Up Tuesdays Open Mic",
    "location": "Whiskey Cellar 77 E 7th St, New York NY",
    "date": "Tuesday",
    "lat": 40.727348,
    "lng": -73.986367,
    "details": "Time: 6:00pm\nFrequency: Weekly\nCost: Paid\nURL: https://www.whiskeycellarnyc.com/"
  },
  {
    "id": "251",
    "isRecurring": true,
    "name": "Suddenly Stand Up",
    "location": "The Duplex 61 Christopher Street, New York NY",
    "date": "Tuesday",
    "lat": 40.733744,
    "lng": -74.00249,
    "details": "Time: 6:30pm\nFrequency: Weekly\nCost: Free\nURL: https://www.yelp.com/biz/the-duplex-new-york"
  },
  {
    "id": "252",
    "isRecurring": true,
    "name": "Say Cheese Mic",
    "location": "Rent Money Lounge 85 Stanton Street, New York NY",
    "date": "Tuesday",
    "lat": 40.72145,
    "lng": -73.988778,
    "details": "Time: 6:30pm\nFrequency: Weekly\nCost: Paid\nURL: https://slotted.co/saycheesemic"
  },
  {
    "id": "253",
    "isRecurring": true,
    "name": "Comedians On The Loose",
    "location": "Black Cat LES 172 Rivington Street, New York NY",
    "date": "Tuesday",
    "lat": 40.719014,
    "lng": -73.984576,
    "details": "Time: 7:00pm\nFrequency: Weekly\nCost: Paid\nURL: https://www.yelp.com/biz/black-cat-les-new-york-2"
  },
  {
    "id": "254",
    "isRecurring": true,
    "name": "Battel Mic",
    "location": "Producers Club 358 West 44th Street, New York NY",
    "date": "Tuesday",
    "lat": 40.759545,
    "lng": -73.991498,
    "details": "Time: 7:00pm\nFrequency: Weekly\nCost: Paid\nURL: https://www.yelp.com/biz/producers-club-theaters-and-bar-new-york-2"
  },
  {
    "id": "255",
    "isRecurring": true,
    "name": "Open Mic",
    "location": "Phoenix Bar 447 E 13th St, New York NY",
    "date": "Tuesday",
    "lat": 40.72993,
    "lng": -73.981083,
    "details": "Time: 7:00pm\nFrequency: Weekly\nCost: Paid\nURL: https://www.yelp.com/biz/phoenix-new-york"
  },
  {
    "id": "256",
    "isRecurring": true,
    "name": "NYC Talent Show",
    "location": "The Slipper Room 167 Orchard St, New York NY",
    "date": "Tuesday",
    "lat": 40.721389,
    "lng": -73.988672,
    "details": "Time: 7:30pm\nFrequency: Weekly\nCost: Free\nURL: http://nyctalentshow.com/"
  },
  {
    "id": "257",
    "isRecurring": true,
    "name": "Laughing Buddha Mic",
    "location": "Grisly Pear Comedy Club 243 West 54th Street, New York NY",
    "date": "Tuesday",
    "lat": 40.76449,
    "lng": -73.983297,
    "details": "Time: 8:00pm\nFrequency: Weekly\nCost: Paid\nURL: http://laughingbuddhacomedy.com/mics"
  },
  {
    "id": "258",
    "isRecurring": true,
    "name": "Hot Mic",
    "location": "Somebody\u2019s Darling 1664 1st Ave, New York NY",
    "date": "Tuesday",
    "lat": 40.763751,
    "lng": -73.959197,
    "details": "Time: 8:00pm\nFrequency: Weekly\nCost: Paid\nURL: https://docs.google.com/forms/d/15jDWo7QKQJmXclr9pldQEect9ERz14fFs-k2XsQKtYY/viewform?edit_requested=true#responses"
  },
  {
    "id": "259",
    "isRecurring": true,
    "name": "The Bar Mic",
    "location": "Teddy\u2019s F&B Bar And Grill 2171 2nd Ave, New York NY",
    "date": "Tuesday",
    "lat": 39.530275,
    "lng": -81.803695,
    "details": "Time: 8:00pm\nFrequency: Weekly\nCost: Paid\nURL: https://www.yelp.com/biz/teddys-bar-and-grill-new-york"
  },
  {
    "id": "260",
    "isRecurring": true,
    "name": "Comedians On The Loose",
    "location": "Black Cat LES 172 Rivington Street, New York NY",
    "date": "Tuesday",
    "lat": 40.719014,
    "lng": -73.984576,
    "details": "Time: 9:00pm\nFrequency: Weekly\nCost: Paid\nURL: https://www.yelp.com/biz/black-cat-les-new-york-2"
  },
  {
    "id": "261",
    "isRecurring": true,
    "name": "Laughing Buddha Mic",
    "location": "Grisly Pear Comedy Club 243 West 54th Street, New York NY",
    "date": "Tuesday",
    "lat": 40.76449,
    "lng": -73.983297,
    "details": "Time: 10:00pm\nFrequency: Weekly\nCost: Paid\nURL: http://laughingbuddhacomedy.com/mics"
  },
  {
    "id": "262",
    "isRecurring": true,
    "name": "Sean Conrad's Open Mic",
    "location": "West Side Comedy Club 201 West 75th Street, New York NY",
    "date": "Wednesday",
    "lat": 40.780769,
    "lng": -73.980466,
    "details": "Time: 12:00pm\nFrequency: Weekly\nCost: Paid\nURL: https://www.fcomedyclub.com/open-mics-calendar"
  },
  {
    "id": "263",
    "isRecurring": true,
    "name": "The Drew And Peter Mic",
    "location": "Greenwich Village Comedy Club 99 Macdougal Street, New York NY",
    "date": "Wednesday",
    "lat": 40.728682,
    "lng": -74.001912,
    "details": "Time: 1:00pm\nFrequency: Weekly\nCost: Paid\nURL: https://www.yelp.com/biz/greenwich-village-comedy-club-new-york"
  },
  {
    "id": "264",
    "isRecurring": true,
    "name": "The Drew And Peter Mic",
    "location": "Greenwich Village Comedy Club 99 Macdougal Street, New York NY",
    "date": "Wednesday",
    "lat": 40.728682,
    "lng": -74.001912,
    "details": "Time: 3:00pm\nFrequency: Weekly\nCost: Paid\nURL: https://www.yelp.com/biz/greenwich-village-comedy-club-new-york"
  },
  {
    "id": "265",
    "isRecurring": true,
    "name": "Get It Going",
    "location": "Broadway Comedy Club 318 West 53rd Street, New York NY",
    "date": "Wednesday",
    "lat": 40.764451,
    "lng": -73.985669,
    "details": "Time: 3:00pm\nFrequency: Weekly\nCost: Paid\nURL: https://slotted.co/wednesdaymic"
  },
  {
    "id": "266",
    "isRecurring": true,
    "name": "Wake That Ass Up Open Mic",
    "location": "Barcelona Bar 923 8th Avenue, New York NY",
    "date": "Wednesday",
    "lat": 40.765331,
    "lng": -73.984116,
    "details": "Time: 4:00pm\nFrequency: Weekly\nCost: Paid\nURL: https://www.yelp.com/biz/barcelona-bar-new-york"
  },